city,count,latitude,longitude
Baghdad,3040,33.303566,44.371773
Mogadishu,678,2.059819,45.326115
Mosul,660,36.354145,43.143570000000004
Karachi,596,24.891115,67.143311
Benghazi,518,32.069286,20.151144
Arish,316,31.126646,33.800865
Kabul,309,34.516895,69.14701099999999
Aleppo,263,36.201721,37.14352
Quetta,251,30.200819,66.994354
Tripoli,237,34.439478,35.833427
Fallujah,202,33.349159,43.784199
Dhaka,201,23.791275,90.418205
Peshawar,195,34.029149,71.472235
Ramadi,189,33.420947999999996,43.295662
Sanaa,185,15.325443,44.211895
Taizz,182,13.586484,44.024105
Kirkuk,178,35.45211,44.375465000000005
Madain,174,33.100528999999995,44.584492
Tikrit,156,34.621521,43.668377
Sheikh Zuweid,154,31.212225,34.117065000000004
Donetsk,151,47.981646999999995,37.762325
Damascus,149,33.515244,36.292084
Aden,145,12.825647,44.846416
Abu Ghraib,141,33.31065,44.038208000000004
Tarmiyah,139,33.669689,44.381316999999996
Mahmudiyah,136,33.057990999999994,44.354839
Yusufiyah,131,33.07835,44.254719
Bujumbura,128,-3.375828,29.364107
Baqubah,124,33.74324,44.623825
Rafah,123,31.250196000000003,34.241279999999996
Imphal,120,24.798346,93.94043
Maiduguri,119,11.840929,13.141459
Jerusalem,117,31.784838,35.224613
Jalalabad,116,34.417122,70.44959300000001
Dawr district,113,34.439761,43.868988
Taji,113,33.540672,44.251265999999994
Nahrawan,103,33.375759,44.702866
Belfast,100,54.607712,-5.95621
Sirte,95,31.197585999999998,16.586681
Saba al-Bor,91,33.460819,44.157433000000005
Tuz Khormato,90,34.881347999999996,44.62513
Kandahar,89,31.631083,65.742226
Baiji,87,34.92485,43.491413
Cairo,86,30.084629,31.334314000000003
Muqdadiyah,85,33.953167,44.921906
Samarra,84,34.208416,43.890713
Albu Bali,83,33.457122999999996,43.471428
Husseiniyah,83,33.548306,44.415733
Athens,82,37.99749,23.762728
Derna,80,32.760422,22.635265
Ghazni,79,33.542621999999994,68.415329
Istanbul,77,41.106178,28.689863
Latifiyah,74,32.982933,44.361595
Kunduz,69,36.705776,68.87706
Shaykh Uthman,65,12.867085000000001,44.981911
Bangkok,63,13.785793,100.560852
Khost,62,33.335258,69.928467
Lashkar Gah,62,31.60063,64.369652
Kismayo,62,-0.35784699999999997,42.54665
Herat,60,34.346722,62.197315
Srinagar,58,34.08374,74.789902
Saqlawiyah,55,33.397812,43.706276
Mushahidah,55,33.649971,44.261542999999996
Londonderry,55,55.011562,-7.3120449999999995
Jalawla,54,34.271034,45.163567
Giza,52,30.022924,31.185191999999997
Radhwaniyah,52,33.185299,44.26778
Shyrokyne,51,47.098835,37.81987
Khalidiyah,51,33.388054,43.5317
Karma,50,33.403057000000004,43.911865
Jamrud,50,34.002579,71.38247700000001
Bangui,50,4.37474,18.551292
Arsal,47,34.184605,36.424011
Tuz Khormato district,46,34.848177,44.656766
Hebron,45,31.530243,35.094162
Shirqat,45,35.499439,43.234894
Diyarbakir,45,37.922218,40.184376
Nusaybin,45,37.080181,41.220196
Homs,45,34.717705,36.722823999999996
Kiev,45,50.4501,30.5234
Zaidan,44,33.24637,44.02548
Afgoye,44,2.14383,45.118061
Hawr Rajab,44,33.19392,44.408577
Turbat,44,25.999413,63.047451
Kilis,44,36.71928,37.11557
Baidoa,43,3.115641,43.64658
Pir Koh,43,29.143866,69.099785
Abu Ghraib district,42,33.291944,44.065556
Tarin Kot,42,32.61797,65.872375
Mukalla,42,14.543970000000002,49.12458
Avdiivka,42,48.143208,37.753361
Hamamiyat,42,33.509671000000004,44.201679999999996
Sangin district,41,32.061234000000006,64.968912
Lahore,41,31.505470000000003,74.34288000000001
Qayyarah,40,35.79813,43.294178
Hawijah district,40,35.32626,43.7672
Alexandria,39,31.193703999999997,29.917103000000004
Shchastya,39,48.736645,39.226653999999996
Amiriyat al-Fallujah,39,33.162096000000005,43.872258
Al-Baghdadi,39,33.864799,42.536384999999996
Puli Khumri,38,35.947552,68.710327
Shabqadar,38,34.217285,71.56104300000001
Pisky,38,48.064426,37.673248
Yala,38,6.5454989999999995,101.2799
Mandera,37,3.927631,41.867523
Basra,37,30.510053999999997,47.778095
Luhansk,37,48.581534999999995,39.355545
Marib,37,15.456389999999999,45.324871
Maywand district,37,31.499713,65.000854
Shindand district,36,33.300651,62.143125
Chittagong,36,22.341896,91.815117
Dera Ismail Khan,36,31.816667,70.916667
Hayatabad,35,33.976307,71.437157
Bosaso,35,11.274796,49.179657
Lahij,35,13.063399,44.880882
Qalat,35,32.100204,66.901016
Odessa,35,46.48153,30.72315
Marawi,34,8.001171000000001,124.284462
Puli Alam,34,34.021194,68.999535
Galkayo,33,6.774396,47.429031
Beledweyne,33,4.73538,45.2024
Merca,33,1.716188,44.768864
Cotabato City,32,7.209594,124.24196599999999
Ajdabiya,32,30.757133000000003,20.237541
Kharkiv,31,49.9935,36.230383
Kidal,31,18.442701,1.411332
Hit,31,33.644492,42.83807
Dera Bugti district,31,28.923447999999997,69.001648
Mariupol,31,47.117252,37.572659
Hammam al-Alil,31,36.158558,43.2551
Panjgur district,30,26.666666999999997,64.25
Nahri Saraj district,30,31.823601,64.564087
Bijapur district,30,18.755249,80.816788
Riyadh,29,35.272076,43.915043
Sukma district,29,18.394927,81.658604
Baiji district,29,34.929167,43.493056
Eshkol regional council,29,31.202661,34.466578000000005
Panjgur,29,26.972136,64.114571
Sadiyah,29,34.125729,45.003341999999996
Sur district,28,37.924973,40.210983
Chaman,28,30.922109999999996,66.45153
Semdinli district,28,37.311684,44.569334999999995
Azim,28,34.289224,44.543094
Dera Murad Jamali,28,28.544390000000003,68.218002
Dera Bugti,28,29.034412,69.158661
Gaza,28,31.502407,34.459742999999996
Mihtarlam,28,34.648053999999995,70.18740600000001
Najran,28,17.554939,44.232357
Qarabagh district,27,33.199051000000004,68.081661
Jurf al-Sakhar,27,32.867008,44.220455
Bannu,27,32.987347,70.602524
Rawalpindi,27,33.594013000000004,73.06907700000001
Mazari Sharif,27,36.70993,67.1157
Islamabad,27,33.671638,73.05606800000001
Khyber district,27,34.012848999999996,71.223864
Gardez,27,33.598633,69.228996
Hasakah,26,36.503593,40.740627
Cukurca district,26,37.290025,43.66982
Bagram,26,34.944679,69.26603100000001
Hadithah,26,34.160587,42.37254
Landi Kotal,26,34.110325,71.163803
Dhuluiya,25,34.057114,44.218292
Paris,25,48.856644,2.34233
Sui,25,28.633307000000002,69.19036899999999
Khuzdar,25,27.809921000000003,66.620956
Beni,25,0.49594399999999994,29.459606
Abu Sayda,25,33.926586,44.772064
Slovyansk,25,48.851688,37.613808
Seiyun,25,15.940010999999998,48.789753000000005
Chattar,25,28.869226,68.334419
Ashkelon,25,31.670149,34.575153
Debaltseve,25,48.346134,38.424828000000005
Andar district,25,33.273713,68.561447
Sopore,24,34.288891,74.46371500000001
Stanytsia Luhanska,24,48.660713,39.470314
Taza Khurmatu,24,35.303047,44.329933000000004
Bashir,24,35.244621,44.275486
Faiyum,24,29.311707000000002,30.838812
Marjah,24,31.467463000000002,64.092445
Bardere,24,2.349308,42.280334
Aguelhoc,24,19.464848,0.8563930000000001
Bati Kot district,23,34.288258,70.78250899999999
Yathrib,23,33.994591,44.357273
Shirqat district,23,35.494847,43.097163
Baraki Barak district,23,33.969167,68.944722
Sderot,23,31.5282,34.596382
Sixth of October,23,29.997915000000003,30.963032000000002
Wihdah,23,33.126019,44.685215
Karbala,23,32.604393,44.007145
Tral,22,33.931011,75.114212
Maymana,22,35.915304,64.750752
Hillah,22,32.469238,44.416637
Qoryoley,22,1.789637,44.529976
Baghlani Jadid district,22,35.804295,69.287754
Kech district,22,26.00422,63.060478
Rajshahi,22,24.368779999999997,88.64031899999999
Iskandariyah,22,32.887157,44.341637
Berlin,21,52.50153,13.401851
Nad Ali district,21,31.636267,64.243237
Tel Aviv,21,32.08297,34.811886
Marinka,21,47.942608,37.505134999999996
Ankara,21,39.930771,32.767540000000004
Kano,21,11.974328,8.50026
Balad,21,34.010471,44.148235
Shariff Aguak,21,6.862806,124.443649
Mohammad Agha district,21,34.214774,69.098546
Adhaim,21,34.275065999999995,44.537865000000004
Bawi,21,33.100297999999995,44.583139
Achin district,20,34.035533,70.574089
Deir ez-Zor,20,35.333061,40.138737
Tikrit district,20,34.925074,43.809003999999995
Tump,20,26.102882,62.368945999999994
Hangu,20,33.528893,71.056122
Ishaqi,20,34.010096999999995,44.062745
Hub,20,25.044537,66.874672
Horlivka,20,48.327225,38.025673
Shopian,20,33.721287,74.831062
Gombe,20,10.286653,11.163861
Khwaja Sabz Posh district,20,36.098459000000005,64.864461
Rashidiyah,20,33.542351000000004,44.365334000000004
Saydabad district,20,34.007712,68.714007
Qarah Tapah,20,34.430836,44.934090000000005
Nyala,20,12.057186,24.878695
Shahjoy district,20,32.503878,67.40835899999999
Anantnag,20,33.732215999999994,75.157913
Siniyah,20,34.933361,43.412552000000005
Cizre,20,37.331265,42.184007
Sungai Kolok,20,6.013915,101.950233
Gao,19,16.276477,-0.039152
Samarra district,19,34.19246,43.88619
Sibi,19,29.548278999999997,67.879189
Qaysar district,19,35.69206,64.295739
Zamboanga City,19,6.929089,122.07885
Hyderabad,19,25.389288,68.357338
Timbuktu,19,16.772576,-3.006577
Santiago,19,-33.366238,-70.505302
Sufiyah,19,33.447155,43.340736
Qamishli,19,37.05336,41.227345
Balad district,18,34.044694,44.182677000000005
Cizre district,18,37.331264000000004,42.181782
Orakzai district,18,33.697271,71.144852
Beled Hawo,18,3.926858,41.877171000000004
Popasna,18,48.635265000000004,38.380325
Manila,18,14.599352,120.98477199999999
Awamiyah,18,26.587351,49.984146
Daquq district,18,35.084302,44.323966999999996
Farah,18,32.37001,62.12845600000001
Bannu district,18,32.920836,70.62304300000001
Bala Buluk district,18,32.693709999999996,62.719359
Shahidi Hassas district,18,32.926517,65.570829
Bannang Sata district,18,6.266667,101.264444
Gereshk,18,31.825871000000003,64.576431
Gwadar,18,25.1458,62.326556999999994
Alon Shvut,18,31.654064,35.125057
Kobani,18,36.886497,38.350204
Pasni,18,25.289404,63.343357999999995
Mombasa,18,-4.0411790000000005,39.677611999999996
Hawijah,18,35.326122,43.780811
Jaarah,17,33.170231,44.558002
Ramadi district,17,33.428863,43.305531
Sohbatpur,17,28.518663,68.542679
Khalis,17,33.848618,44.522125
Misrata,17,32.354923,15.105525
Tagab district,17,34.855582,69.64936800000001
Jolo,17,6.050458,121.012245
Mohmand district,17,34.565494,71.477429
Shirin Tagab district,17,36.238384,64.864419
Sabha,17,27.022866999999998,14.441218
Badaber,17,33.91758,71.562035
Beersheba,17,31.248484,34.787853000000005
Lamitan,17,6.660500999999999,122.13899199999999
Nijrab district,17,35.017087,69.630778
Tak Bai district,17,6.248334,102.002849
Tawilah,17,13.513827,24.869076
Khogyani district,17,34.226944,70.14666700000001
Mastung,17,29.803965,66.85099
Jessore,17,23.163957,89.213004
Parachinar,16,33.897995,70.107536
Bajaur district,16,34.856902000000005,71.429936
Jurf al-Sakhar district,16,32.902177,44.152694
Opytne,16,48.363186,37.891921999999994
Asadabad,16,34.875656,71.152008
Silvan district,16,38.14274,41.006623
Dawr,16,34.458889,43.791004
Chernukhino,16,48.325562,38.511093
Jowhar,16,2.7772639999999997,45.500640999999995
Dujail,16,33.835629,44.247406
Dawlatabad district,16,36.523095,65.054353
Mastung district,16,29.408737,67.189449
Gora,16,31.078333,34.131668
Bihsud district,16,34.453813000000004,70.484844
Mardan,16,34.200592,72.048439
Bulobarde,15,3.856237,45.57115
Hit district,15,33.641222,42.837057
Dih Yak district,15,33.468564,68.763192
Palmyra,15,34.558525,38.293671
Helwan,15,29.831976,31.337257
Potiskum,15,11.704399,11.088539
Ataq,15,14.536389000000002,46.833056
Hajjaj,15,34.834415,43.515133
Bayda,15,13.985013,45.558479
Hawara,15,32.154514,35.258553000000006
Musayyib,15,32.777344,44.289352
Raqqah,15,35.951523,39.009563
Churachandpur,15,24.340836,93.697562
Zolote,15,48.694492,38.50779
Silopi district,15,37.247632,42.471271
Chaparhar district,15,34.328977,70.40748599999999
Balad Ruz,14,33.693946999999994,45.067425
Sulayman Beg,14,34.790665000000004,44.662151
Bannang Sata,14,6.260623000000001,101.253677
Bogota,14,4.667128,-74.10605600000001
Ain al-Hilweh,14,33.542004,35.381153000000005
Krymske,14,48.750614,38.787846
Nairobi,14,-1.2648700000000002,36.850277
Nusaybin district,14,37.090393,41.211633
Trekhizbenka,14,48.755672,38.968559
Sdot Negev regional council,14,31.417321,34.544657
Poblacion,14,9.1584,123.4996
Madurai,14,9.919267,78.132699
Machh,14,29.855375,67.339928
Ashdod,14,31.821444,34.665169
Strabane,14,54.819164,-7.467909
Rutbah,14,33.036021999999996,40.288158
New York City,14,40.697132,-73.931351
Kramatorsk,14,48.730804,37.574596
Safi,14,34.533889,71.27
Chapa Dara district,13,34.920176,70.764424
Sariab,13,30.084515000000003,66.983437
Kanker district,13,20.227824,81.31178100000001
Rutbah district,13,33.036390000000004,40.283332
Hoshab,13,26.008619,63.891228000000005
Kurram district,13,33.712961,70.350617
Rueso district,13,6.357409,101.504671
Wadh,13,27.342552,66.36792
Dibis,13,35.672932,44.070145000000004
Tanyong Mat,13,6.310128,101.71271899999999
Mand,13,26.115631,62.037643
Dali,13,13.702663000000001,44.73357
Nushki,13,29.552311,66.02050799999999
Rajbiraj,13,26.542321,86.7571
Alingar district,13,34.800272,70.372528
South Waziristan district,13,32.523346999999994,69.42949899999999
Tal Afar,13,36.376823,42.448875
Zagazig,13,30.589159000000002,31.503929
Qatn,13,15.840202,48.45438
Muqdadiyah district,13,33.904087,44.852064
Tubruq,13,32.073238,23.944855
Charsadda,13,34.14658,71.743538
San Isidro,13,12.951400999999999,123.88083700000001
Sinjar,13,36.319386,41.861473
Barawe,13,1.114228,44.028706
Nablus,13,32.222271,35.253506
Sungai Padi district,13,6.166706,101.911987
Pulwama,13,33.874027000000005,74.901505
Kabkabiya,13,13.647672,24.096332999999998
Bethlehem,13,31.704338,35.194355
Nong Chik district,12,6.801556,101.151217
Sirnak,12,37.524148,42.454371
Tank district,12,32.246185,70.356397
Thung Yang Daeng district,12,6.634973,101.44797
Yarang district,12,6.693592,101.309685
Isabela City,12,6.700414,121.97255700000001
Zawiya,12,32.755736999999996,12.723051
El Fashir,12,13.624196,25.344978
Tharthar,12,33.683265999999996,43.473259000000006
Jos,12,9.933421000000001,8.88309
Rangae district,12,6.296389,101.72833299999999
Caracas,12,10.482834,-66.962128
El Wak,12,2.626452,41.423798
Chermalyk,12,47.313381,37.805458
Uludere district,12,37.429183,42.883131
Wana,12,32.306098999999996,69.57995600000001
Rasheed,12,33.117836,44.369362
Falahat,12,33.340336,43.659054
San Jose,12,7.706295,126.106131
Qatif,12,26.554785,50.004523999999996
Khar,12,34.61391,71.92900999999999
Wata Pur district,12,34.910931,71.127398
Kabacan,12,7.10677,124.82583799999999
Lawdar,12,13.887402999999999,45.863647
Imam Sahib district,12,37.188163,68.905252
Ghani Khel,12,34.195751,70.786385
Rusa Milae,12,6.8739539999999995,101.234711
Yaha district,12,6.478333,101.135
Cape Town,12,-33.981557,18.567629999999998
Almar district,12,35.848126,64.24248
Kohlu,12,29.896093,69.250237
Garissa,12,-0.45354399999999995,39.646028
Muang Yala district,12,6.541138,101.280396
Warri,12,5.52372,5.7531669999999995
Qush Tepa district,12,36.160669,65.447851
Zintan,12,31.927389,12.251627000000001
Shibirghan,12,36.674671000000004,65.748405
Muxungue,12,-20.57698,33.835765
Narayanpur district,12,19.736855,81.215251
Bashiqah,12,36.433690999999996,43.275079999999996
Nawa-i-Barakzayi district,12,31.477245,64.28984
Beytussebap district,12,37.662446,43.10823
Darzab district,11,35.996459,65.35199399999999
Maruf district,11,31.594154999999997,66.942812
Kathmandu,11,27.708754,85.329498
Lviv,11,49.841775,24.031214000000002
Chamkani,11,34.005901,71.648872
Nasirabad district,11,28.937727000000002,68.198622
Maiorska,11,48.397492,37.975803000000006
Fuah,11,35.982760999999996,36.704646999999994
Sharana,11,33.1782,68.752533
Pusht Rod district,11,32.453618,62.077378
Marawara district,11,34.928284000000005,71.275542
Radaa,11,14.413989,44.837418
Yuksekova district,11,37.56477,44.296321999999996
Radwaniyah,11,33.192356,44.001503
Bijbehara,11,33.789497,75.103386
Benina,11,32.094952,20.268871
Shopian district,11,33.735763,74.837897
Moscow,11,55.751377000000005,37.579914
Sungai Kolok district,11,6.029237,101.924798
Hranitne,11,47.460209000000006,37.86647
Chamarkand,11,34.683281,71.21629300000001
Deh Rahwod district,11,32.645037,65.47766800000001
Pasemat,11,6.038708,101.983711
Diwaniyah,11,31.98958,44.923775
Labweh,11,34.196331,36.357601
Salarzai,11,34.786421999999995,71.58451099999999
Krasnohorivka,11,48.020912,37.529469
Mora,11,11.046735,14.140454
Pashtun Kot district,11,35.598206,64.76365899999999
Labraq,11,32.788338,21.967283
Faisalabad,11,31.410724,73.108405
Zinjibar,11,13.129726000000002,45.385571
Artemivsk,11,48.596962,37.998298999999996
Kajaki district,11,32.311454,65.079174
San Antonio,11,17.408355,120.476747
Tanta,11,30.787678000000003,30.999529
Qalay-i-Zal district,11,37.0,68.416667
Pachir Agam district,11,34.183493,70.320432
Sidra,11,30.757109999999997,18.195798999999997
Juba,11,4.8553489999999995,31.567781
Zaranj,11,30.959932000000002,61.86895
San Juan,11,13.058242,124.015178
Wajir,11,1.746832,40.053447999999996
Khanasah,11,33.043201,44.641945
Haswah,11,32.880179999999996,44.386963
Shillong,11,25.578530999999998,91.893254
Makhachkala,11,42.98542,47.450668
Zafaraniyah,11,33.227039000000005,44.527786
Buhriz,11,33.716995000000004,44.679516
Miran Shah,11,33.006516,70.068253
Mashkai,11,26.949394,65.492241
Nowshera,10,34.007206,71.983078
Moreh,10,24.35172,94.34217
Wajihiyah,10,33.879803,44.854084
Bagram district,10,34.929139,69.342038
London,10,51.504387,-0.140041
Lattakia,10,35.528403999999995,35.792320000000004
Qalandiyah,10,31.861471,35.208427
Rashad,10,35.114309999999996,44.222439
Mirik,10,26.885559000000004,88.187687
Charikar,10,35.018158,69.168991
Injil district,10,34.468208000000004,62.185609
Khuzdar district,10,27.508215000000003,66.42715
Madagali,10,10.890928,13.627589000000002
Khas Uruzgan district,10,32.929848,66.68909599999999
Charsadda district,10,34.216456,71.714795
Awaran district,10,26.458388,65.230796
Sejar,10,33.395309999999995,43.845825
Chora district,10,32.846406,66.04986099999999
Arbil,10,36.192589,44.004622999999995
Kurseong,10,26.882837,88.279816
Tumaco,10,1.8066669999999998,-78.76472199999999
Datta Khel,10,32.901089,69.74940500000001
Lehri,10,29.082774,68.095446
Charkh district,10,33.741026,68.939036
Kolofata,10,11.162543,14.013976000000001
Pikit,10,7.054216,124.673096
Dera Allah Yar,10,28.380661,68.343147
Starohnativka,10,47.541171999999996,37.780678
Kanaan,10,33.693409,44.796085
Kirkuk district,10,35.466667,44.316666999999995
Khanabad district,10,36.667352,69.097409
Mingora,10,34.774479,72.364052
Bani Saad,10,33.573485999999995,44.547424
Bacho district,10,6.5504809999999996,101.649822
Thessaloniki,10,40.620663,22.951999999999998
Kaduna,10,10.516667,7.433333
Naw Zad district,10,32.400023,64.431892
Taywara district,10,33.521157,64.416724
Sari Pul,10,36.217655,65.933037
Hisarak district,10,34.300959000000006,69.8342
Shibam,10,15.914914999999999,48.650745
Bamenda,10,5.961483,10.169027
Bokaro district,10,23.727918,86.104956
Si Sakhon district,10,6.172186,101.496092
Hudaydah,10,14.781294,42.972851
Leego,10,2.71581,44.511845
Daglica,10,37.373857,44.085046000000006
Baharak district,10,37.055325,71.18087299999999
Muqur district,10,32.806121000000005,67.773521
Himreen,10,34.100722999999995,45.05196
Tapuah,10,32.119816,35.249802
Ecatepec,10,19.602523,-99.05142099999999
Kolkata,10,22.551729,88.35234100000001
Van,9,38.491659000000006,43.375882
Gizab district,9,33.395618,66.223015
Bara,9,33.915234000000005,71.458679
Mir Ali,9,32.975433,70.273735
Burhakaba,9,2.798167,44.078559999999996
Dahana-i-Ghuri district,9,35.809092,68.549566
Hangu district,9,33.443839000000004,70.907124
Dublin,9,53.361675,-6.2454849999999995
Mabini,9,7.282128999999999,125.857401
Sirwah district,9,15.45641,45.018612
Patikul,9,6.066546,121.10022099999999
Jhao,9,26.374252000000002,65.612984
Kuchlak,9,30.354934999999998,66.944313
Masaeed,9,31.116553999999997,33.72472
Duma,9,33.571575,36.40044
Sinjar district,9,36.322969,41.874576
Sokilnyky,9,48.747036,38.869106
Port Harcourt,9,4.8274040000000005,7.015944999999999
Lamu,9,-2.267896,40.901205
Mukha,9,13.319617000000001,43.25563
Doaba,9,33.622423,71.192994
Muang Pattani district,9,6.8686110000000005,101.25
Rawah,9,34.474993,41.905621999999994
Abu Qurayn,9,31.448914000000002,15.256008
Waeng district,9,5.852411,101.83807
Kohat,9,33.590603,71.44062
Svitlodarsk,9,48.434017,38.221252
Khwaja Ghar district,9,37.065833000000005,69.421111
Obe district,9,34.32915,63.232443999999994
Al-Fathah,9,35.050802000000004,43.558242
Gelan district,9,32.739996999999995,67.625093
Nihm district,9,15.749972,44.499986
Rueso,9,6.3914599999999995,101.517296
Darjeeling,9,27.046315999999997,88.271156
Silopi,9,37.248553,42.470552000000005
Dalori,9,11.761901,13.266306
Dangam district,9,35.002193,71.406188
Goundam,9,16.416545000000003,-3.666615
Na Pradu,9,6.678882000000001,101.147424
Maydan Shahr,9,34.362271,68.842057
Paghman district,9,34.591139,68.95694
Raman district,9,6.491822,101.3885
Hamburg,9,53.556487,9.910117
Larne,9,54.856471,-5.810265
Khok Pho district,9,6.6854,101.139526
Bambari,9,5.7635510000000005,20.674038
Chuap,9,6.241956,101.809503
Dibis district,9,35.670429,44.073953
Beida,9,32.760742,21.757212
Beit El,9,31.9416,35.222734
Chintagupha,9,18.252285,81.244812
Hadithah district,9,34.139439,42.378263000000004
Ras Lanuf,9,30.491792999999998,18.547119
Khash Rod district,9,31.662674,63.01475799999999
Chennai,9,13.052414,80.250825
Dhamar,9,14.597842000000002,44.386803
Sidon,9,33.550434,35.370964
Ibb,9,13.966667000000001,44.166667
Galgala,9,10.985956,49.055068
Kafrayah,9,35.990086,36.677223
Mahaday,9,2.339081,45.422544
Saravena,9,6.955331,-71.859149
Zab,9,35.271023,43.458084
Yingo district,9,6.398388,101.702512
Nawagai,9,34.404925,72.556802
Badush,9,36.443909999999995,42.951832
Mayo district,9,6.719991,101.412944
Kutum,8,14.209794,24.657404
Sylhet,8,24.912089,91.850123
Kalat,8,29.047852000000002,66.593323
Burka district,8,36.211121999999996,69.1684
Adana,8,36.991419,35.330828000000004
Bastar district,8,19.601869,81.426211
Abu Tawilah,8,31.211786,34.151035
Samtah,8,16.601688,42.94059
Sai Buri district,8,6.720569,101.5967
Ipekyolu district,8,38.500718,43.375591
Troitske,8,48.260742,37.859009
Azra district,8,34.171321999999996,69.63565799999999
Pagadian,8,7.825203,123.43737800000001
Al-Wardiyah,8,33.10008,44.583279
Dogubeyazit district,8,39.547074,44.068778
Buraiqeh,8,12.760069,44.890266
Al-Asiri,8,33.897803,44.813111
Gaziantep,8,37.067631,37.37315
Khok Pho,8,6.68078,101.131499
Kiryat Arba,8,31.529734,35.118225
Aqcha district,8,36.903154,66.190545
Zurmat district,8,33.330067,69.192392
Brussels,8,50.836426,4.367415
Aka Khel,8,33.818195,70.644798
Timbangan,8,6.88165,124.484012
Kohlu district,8,29.673863,68.715498
Jenin,8,32.460617,35.301247
Gothenburg,8,57.70887,11.97456
Kadugli,8,11.016796000000001,29.716448
Bab,8,36.366199,37.512276
Than To district,8,6.051113,101.306884
Shihr,8,14.762732000000002,49.605728000000006
Rahim Yar Khan,8,28.416328000000004,70.29975
Nembe,8,4.532813,6.403743
Shah Wali Kot district,8,32.074093,66.141526
Abuja,8,9.066042999999999,7.4814300000000005
Giridih district,8,24.181835999999997,86.30685
Nertiti,8,12.959799,24.039829
Alishing district,8,34.782778,70.109167
Habbaniyah,8,33.374808,43.562134
Bolan,8,31.589827000000003,64.337952
Albu Faraj,8,33.449771999999996,43.29578
Mahfad district,8,14.062312,46.918715999999996
Lice district,8,38.457209999999996,40.647462
Gereida,8,11.270499000000001,25.151484
Baalbek,8,34.034915999999996,36.227844
Feroz Koh,8,34.521316999999996,65.249245
Sayyidah Zaynab,8,33.446476000000004,36.334499
Arghandab district,8,32.559055,67.037879
Nuttal,8,28.750093,68.07604599999999
Pristina,8,42.659349,21.161005
Tee,8,6.9842509999999995,124.452176
Tro Bon,8,6.682392999999999,101.541857
Khazana,8,34.075466,71.599998
Darqad district,8,37.382557,69.451639
Swabi,8,34.123104,72.46901700000001
Nasirnagar,8,24.19575,91.195314
Hermel,8,34.397052,36.387171
Spin Boldak district,8,30.99365,66.397049
Faizabad,8,37.10783,70.56755799999999
Dargecit district,8,37.547104,41.718382
Santo Nino,8,7.704608,125.98829199999999
Musa Qala district,8,32.271489,64.80689699999999
Ghormach district,8,35.75745,63.801706
Beni Suef,8,29.076732,31.099753000000003
Nari district,8,35.225369,71.528625
Makhmur district,8,35.766729999999995,43.585789
Thepha district,8,6.7906889999999995,100.918146
Al-Kharouba,8,31.163713,33.955925
Salamiyah,8,35.012791,37.051505999999996
Bentiu,8,9.259689,29.800147999999997
Kot district,8,34.155556,70.598611
Kampala,8,0.313678,32.580645000000004
Amran,8,15.663054999999998,43.94577
Sabon Gari,7,10.590653999999999,12.207258
Nesh district,7,32.426667,65.636944
Pasaband district,7,33.534234999999995,65.000854
Lat,7,23.710086999999998,84.132248
Torkham,7,34.128723,71.085815
Qaim,7,34.378387,41.035515000000004
Carmen,7,7.199509,124.796982
Qadis district,7,34.855084999999995,63.486204
Amer Sher Ali,7,35.760462,68.918177
Khwaja Baha Wuddin district,7,37.346664000000004,69.533888
Balad Ruz district,7,33.698271999999996,45.083895
Koshki Kohna district,7,34.804066,62.622324
Garmsir district,7,30.911544,64.150589
Fortul district,7,6.794034,-71.76864499999999
Fotokol,7,12.379026,14.224362
Adraskan district,7,33.645556,62.26944399999999
Jacobabad,7,28.281989000000003,68.437904
Imam Gharbi,7,35.600617,42.88443
Lam Mai,7,6.574714999999999,101.201382
Nikishyne,7,48.240883000000004,38.525669
Jazan,7,16.893194,42.57526
Prague,7,50.065647,14.424322
Kondagaon district,7,19.60001,81.67
Khaki Safed district,7,32.677261,61.981559
Gwoza,7,11.083983,13.693092000000002
Anantnag district,7,33.731014,75.148566
Cho-airong district,7,6.210408,101.820757
Quezon City,7,14.67428,121.05749499999999
Gurziwan district,7,35.631667,65.27972199999999
Damaturu,7,11.744639999999999,11.970257
Albu Sayf,7,36.273106,43.159374
Petah Tikva,7,32.089161,34.88382
Tessalit,7,20.252066,0.981526
Midsayap,7,7.191667,124.53333300000001
Kiryat Gat,7,31.605567999999998,34.771770000000004
Pattan,7,34.161541,74.553093
Swabi district,7,34.116813,72.466724
Sabratah,7,32.791561,12.489025999999999
Angoor Ada,7,32.305118,69.551734
Bamako,7,12.650673,-7.997738000000001
Kinshasa,7,-4.389166,15.337620000000001
Loralai,7,30.370974,68.599319
Multan,7,30.192534999999996,71.39981999999999
Kharan district,7,28.002038,65.285708
Chang Phueak,7,6.048818,101.567686
Ceel Buur,7,4.6848849999999995,46.622807
Dinanagar,7,32.126683,75.46345600000001
Parom,7,26.633584000000003,63.338058
Nukhayb,7,32.04298,42.254261
Saberi district,7,33.561423,69.934051
Nonthaburi,7,13.866642,100.496338
Marea,7,36.482582,37.197102
Jakarta,7,-6.210380000000001,106.845386
Shinkay district,7,31.972644,67.375665
Subayhat,7,33.365790999999994,43.95932
Dantewada district,7,18.505515,81.555435
Idlib,7,35.928802000000005,36.631451
Qaa,7,34.353012,36.511322
Khasavyurt,7,43.248554,46.597836
Haskah Menah,7,34.115677000000005,70.463646
Abu Karmah,7,33.906048,44.724545
Mocimboa da Praia,7,-11.353599,40.35224
Mandali,7,12.338,123.658997
Surobi district,7,34.51957,69.788482
Aythah,7,35.625256,43.223236
Male,7,4.175278,73.508889
Sitra,7,26.169081,50.614277
Grozny,7,43.320229,45.654491
Suez,7,29.964494000000002,32.528546
Caloocan,7,14.724492999999999,121.03331000000001
Nasiriyah,7,31.044371,46.261452
Ahwar,7,13.519842,46.714822
Kulachi,7,31.932722,70.460876
Ughelli,7,5.499963,5.983198000000001
Manbij,7,36.528557,37.954094
Tulul al-Baj,7,35.415855,43.114769
Goma,7,-1.6585009999999998,29.220454999999998
Shiraa,7,15.635556,44.323889
Lagos,7,6.458927,3.3877330000000003
Qatn district,7,15.847138000000001,48.483698
Khotsong,7,-27.37443,26.651809000000004
Mattani,7,33.796459000000006,71.558487
Albu Khadu,7,34.593026,43.954452
Loti,7,28.959845,69.390121
Khakrez district,7,31.986110999999998,65.4725
Andkhoy district,7,36.951634999999996,65.126535
Imam Sahib,7,37.181767,68.911301
Mandera district,7,3.935715,41.855167
Zakupwang,7,9.539536,8.899852000000001
Daih,7,26.223698,50.536629
Ludhiana,7,30.898024,75.860077
Delaram district,7,32.154106,63.427794999999996
Dashti Archi district,7,36.956162,69.171327
Ukhrul,7,25.094532,94.361199
Alingar,7,34.432904,71.419881
Beirut,7,33.851601,35.511871
Kansak,7,32.533285,62.324085
Berezove,7,47.769290999999996,37.580479
Argahandab district,7,32.476303,66.953419
Basmayah,7,33.203358,44.586689
Paka Harang,7,6.867858999999999,101.25206800000001
Dimapur,7,25.906034,93.733909
Hatra,7,35.569427000000005,42.723026000000004
Tibu,7,8.63781,-72.73464
Bali district,7,7.853304,10.963746
Muse,7,23.997579,97.90144699999999
Tokyo,7,35.689125,139.747742
Malmo,7,55.584284999999994,13.045573
Smile,6,48.676155,38.916222
Caldiran district,6,39.35922,43.999668
Qansax Dheere,6,2.868764,43.005299
Barire,6,2.047631,44.897628999999995
Waygal district,6,35.221191999999995,71.049777
Alasay district,6,34.897265999999995,69.719871
Mafa,6,11.923489,13.607648999999999
Bay Hasan,6,35.631248,44.008559999999996
Albu Souda,6,33.456112,43.345946999999995
Ceel Waaq,6,2.6558330000000003,41.410833000000004
Tha Kamcham,6,6.8246910000000005,101.082491
Britel,6,33.934212,36.150745
Poonch district,6,33.764588,74.086833
Manama,6,26.210107999999998,50.564011
Zhari district,6,31.784801,65.755234
Ansongo,6,15.666816,0.508533
Panjwai district,6,31.130946,65.266801
Ceelasha Biyaha,6,2.082062,45.207493
Du Layna district,6,34.108771999999995,65.25737
Qazigund,6,33.595389000000004,75.162722
Salbu,6,6.93485,124.42801000000001
Dolzhansky,6,47.857597,39.754063
Kawa,6,6.0116,101.898827
Panare,6,6.864288,101.491013
Zalingei,6,12.915491000000001,23.478285
Masho Khel,6,33.906776,71.500977
Gadchiroli district,6,20.184895,79.994755
Sawo,6,6.437143,101.490712
Yaripora,6,33.723979,75.01782800000001
Ariel,6,32.105525,35.175757
Biu,6,10.611011999999999,12.195089
Husaybah,6,34.154213,41.572376
Gwoza district,6,11.089722,13.688376000000002
Tangdhar,6,34.400377,73.864189
Tacuati,6,-23.463938,-56.737832999999995
Kerawa,6,11.184199000000001,13.914285000000001
Datu Salibo district,6,7.018486,124.473881
Sur Kamar,6,34.376399,71.40004300000001
Williamnagar,6,25.507897,90.603891
Drogheda,6,53.716083999999995,-6.350156
Sarkani district,6,34.789745,71.111926
Bosso,6,13.700804999999999,13.309000000000001
Tekoa,6,31.6528,35.229584
Dawezai,6,33.72546,70.175046
Awantipora,6,33.92,75.02
Tampa,6,28.011484999999997,-82.373941
Al-Abbarah,6,33.813793,44.657238
Bana,6,6.874088,101.276738
Biyo Cadde,6,2.9356720000000003,45.791656
Maungdaw district,6,20.816667000000002,92.366667
Gayan district,6,32.984041999999995,69.430782
Khamis Mushayt,6,18.314753,42.725163
Al-Ayadieh,6,36.486149,42.418186
Bajawan,6,35.537344,44.281671
Oicha,6,0.6968770000000001,29.519696999999997
Muhmand Dara district,6,34.235701,70.96875899999999
Gonder,6,12.606383000000001,37.461490999999995
Shewan,6,32.629444,62.48944399999999
Olenivka,6,47.827861999999996,37.652819
Bishkek,6,42.874722,74.612222
Katun,6,33.775055,44.580349
Diraz,6,26.21912,50.464478
Magsaysay,6,14.285594,122.469369
Mayadin,6,35.015778000000005,40.455212
Al-Tuwal,6,16.524263,42.967896
Sangcharak district,6,35.967023,66.44203
Lafoole,6,2.099684,45.15723
Hasna,6,30.4653,33.785694
Ishkamish district,6,36.382459999999995,69.325816
Bohdanivka,6,48.61874,37.89743
Chimtal district,6,36.678056,66.80305600000001
Zanzibar,6,-6.187404,39.223652
Barwana,6,34.092655,42.385467999999996
Albu Alwan,6,33.438953999999995,44.020691
Lawdar district,6,13.88331,45.866682
Ghalanai,6,34.321111,71.4
Ouagadougou,6,12.347598,-1.538065
Yangon,6,16.887781,96.149559
Fallujah district,6,33.055448,43.714248
Rangpur,6,25.754216,89.250803
Baro,6,6.451714,101.10463
Trebiel,6,32.74815,39.027969
Khair Khana,6,34.9618,63.620739
Ukhrul district,6,25.094431,94.361036
Albu Hayat,6,33.18824,40.042332
Rome,6,41.890961,12.490069
Gubat,6,12.921375,124.12267800000001
North Waziristan district,6,32.60738,69.831171
Tuyong,6,6.844594,101.180036
Vilcun,6,-38.668304,-72.222626
Bulo Marer,6,1.639161,44.526451
Nabi Othman,6,34.221798,36.376812
Spin Boldak,6,31.002734999999998,66.405617
Chashma Sher,6,36.060909,68.593811
Jafarabad district,6,28.3898,68.190838
Maloorlivka,6,48.187149,38.342617
Panare district,6,6.804284,101.502075
Khulna,6,22.814660999999997,89.556688
Goof Gaduud,6,3.110846,43.746320000000004
Bingol,6,38.888447,40.501144000000004
Pattani,6,6.867858999999999,101.25206800000001
Thal,6,33.366485,70.547841
Shaar HaNegev regional council,6,31.503223,34.632673
Kabang district,6,6.348739,100.993087
Diffa,6,13.31489,12.6047
Basos,6,36.712168,69.08671
Daman district,6,31.220671000000003,65.749791
Batan,6,5.52367,5.453146
Malari,6,11.653889,13.421389000000001
Dikwa,6,12.039508,13.918609
Kohima,6,25.67012,94.10763299999999
Sibi district,6,29.539552,67.875908
Abi Gum,6,29.805387,67.40041
Yuksekova,6,37.568892,44.29862
Gomal,6,32.077697,70.190232
Maungdaw,6,20.823738,92.370789
Pishin,6,30.583332000000002,66.99651300000001
Menaka,6,15.914432000000001,2.397368
Konduga,6,11.655408,13.412932000000001
Kalaya,6,33.745824,70.96653
Al-Mahalla Al-Kubra,6,30.968777000000003,31.170672999999997
Gaibandha district,5,25.307408,89.52748100000001
Aziziyah,5,32.90941,45.063590000000005
Novotoshkivske,5,48.724888,38.631035
Jamra,5,27.904542,68.664108
Balhaf,5,13.990226999999999,48.18108
Tembagapura,5,-4.143584,137.090491
Carrickfergus,5,54.71321999999999,-5.812486
Shalan Bood,5,1.7046,44.692715
Benin City,5,6.336345,5.62175
Ali Masjid,5,34.023849,71.26664
Zana Khan district,5,33.678611,68.666667
Ghaziabad district,5,35.233610999999996,71.330556
Sonitpur district,5,26.63,92.8
Ab Band district,5,32.983333,67.966667
Bristol,5,51.462394,-2.6132779999999998
Daraa,5,32.622334,36.103756
Gamboru,5,11.840929,13.141459
Biratnagar,5,26.452475,87.271781
Mayo,5,6.718947999999999,101.387558
Jeddah,5,21.543257,39.176184
Charbagh,5,34.833186,72.441618
Marseille,5,43.296482,5.36978
Waziiyah district,5,13.160563,43.73093
Latehar district,5,23.68,84.73
Hazm,5,16.165407000000002,44.776897
Safra,5,35.113532,44.458257
Zholobok,5,48.713226,38.704266
Lokoja,5,7.7881100000000005,6.729728999999999
Tuburan,5,12.040721000000001,123.775566
Dhahran al-Janub,5,17.651777,43.526192
Beni district,5,0.485721,29.461035
Tibu district,5,8.645655,-72.719868
Bismaya,5,33.203358,44.586689
Hadid,5,33.776309999999995,44.555671999999994
Kherson,5,46.635417,32.616867
Tarin Kot district,5,32.667654,65.901057
Hpakant,5,25.616616,96.316577
Abha,5,18.223461,42.526051
Hatra district,5,35.455089,42.395519
Rabat,5,33.566983,68.70111800000001
Malkangiri district,5,18.341072,81.87389
Waleed,5,33.433811,38.922878000000004
Nafada,5,11.095833,11.3325
Kama district,5,34.45883,70.678462
Tatvan,5,38.502045,42.281308
Eker,5,26.143757,50.604046000000004
Arauquita district,5,7.027777,-71.428526
Pulo Puyo,5,6.7795440000000005,101.193062
Pagangan,5,7.128146000000001,124.59044399999999
Gwadar district,5,25.215382,62.325952
Daynunay,5,3.037389,43.796963
Bismil district,5,37.849762,40.668495
Afgoye district,5,2.142623,45.116717
Ghoryan district,5,34.344722,61.493056
Hamah,5,35.129181,36.760738
Tamontaka,5,7.178491999999999,124.219625
Kalimpong,5,27.067928000000002,88.467833
Tonenke,5,48.139713,37.643398
Beit Einun,5,31.567295,35.119256
Guihulngan,5,10.119955000000001,123.272218
Abyak,5,36.266933,68.01969100000001
Ganta,5,6.943859,124.41966599999999
Loralai district,5,30.397753,68.899169
Ekka Ghund,5,34.212574,71.444728
Teorama,5,8.435722,-73.287308
Monguno,5,12.669321,13.612599
Buenavista,5,7.237075999999999,122.25479299999999
Dushi district,5,35.636562,68.714241
Tipo-Tipo,5,6.497216000000001,122.10514099999999
Datu Unsay,5,6.9202960000000004,124.455954
Eilat,5,29.554547999999997,34.947533
Las Vegas,5,36.211296000000004,-115.24753600000001
Silvan,5,38.141225,41.012807
Warduj district,5,36.750208,71.20958900000001
Tarim,5,16.05,49.0
Bab al-Sham,5,33.470512,44.393494
Dresden,5,51.054486,13.735276
Kalat district,5,29.026544,66.59218100000001
Chanae district,5,6.098333,101.693333
Golaghat district,5,26.519958000000003,93.969764
Sumisip,5,6.490778,121.972431
Marynivka,5,48.182171000000004,37.346684
Leipzig,5,51.340671,12.373313000000001
Dammam,5,26.428603999999996,50.066521
Karkamis,5,36.833508,38.000553000000004
Riyom district,5,9.584206,8.713707000000001
Tumahubong,5,6.503613,122.06584099999999
Ed Daein,5,11.452522,26.129593
Shoqra,5,13.357598999999999,45.69648
Suruc,5,36.975594,38.426398999999996
Ballymoney,5,55.071135999999996,-6.513154
Lurgan,5,54.463367000000005,-6.328597
Imam Weis,5,33.794651,44.892578
Lisburn,5,54.515693999999996,-6.055724
Azaz,5,36.585438,37.046921000000005
Lice,5,38.454944,40.646808
Mavivi,5,0.585554,29.484327
Jani Khel district,5,33.666284999999995,69.786029
Memender,5,33.709209,74.845108
Aurangabad district,5,24.750985,84.374785
Newtownabbey,5,54.660674,-5.916686
Kohsan district,5,34.653819,61.201525
Ijara,5,-1.759261,40.594711
Saravan,5,27.370794,62.334035
Bo Thong,5,6.7864070000000005,101.14827
Gomazai,5,26.134384,62.296852
Abu Darujah,5,34.023571000000004,44.031361
Pampore,5,34.010231,74.917259
Nyongoro,5,-2.325307,40.33128
Shubra el-Kheima,5,30.135777,31.269640000000003
Dara-i-Sufi Payin district,5,36.083457,67.43259300000001
Ngamdu,5,11.763937,12.263129
Donetskyi,5,48.701073,38.673027000000005
Abdul Khel,5,34.070499,70.69994399999999
Khamyab district,5,37.523996999999994,65.742987
Rabiah,5,36.803982,42.093945
Hamdaniyah district,5,36.311951,43.54571
Marchak,5,35.810528000000005,63.134631999999996
Lal Por district,5,34.351851,70.957542
Ballymena,5,54.86538,-6.28038
Bar Qambar Khel,5,33.827244,70.617393
Senapati district,5,24.8817,93.807461
Almoustarat,5,17.353837,0.07814299999999999
Badrashin,5,29.829254,31.253721000000002
Galcad,5,4.023789,46.615971
Qarghayi district,5,34.50203,70.178497
Haqlaniyah,5,34.085258,42.360344
Mahupadar,5,18.610349,81.966971
Gandawa,5,28.558964000000003,67.62100600000001
Habilayn,5,13.532532000000002,44.849667
Washer district,5,32.254838,63.847125
Yaha,5,6.483584,101.13154200000001
Shirzad district,5,34.251187,70.010001
Mamond,5,34.856181,71.430288
Sarband,5,33.93573,71.48751800000001
Bang Khao,5,6.801628999999999,101.146852
Gharyan,5,32.165966,13.016418
Quezon,5,14.67428,121.05749499999999
Kiziltepe district,5,37.192069000000004,40.583705
Alam,5,34.705948,43.697075
Datu Odin Sinsuat,5,7.1881070000000005,124.185708
Hawr Salah ad Din,5,33.860659000000005,44.792119
Paquibato,5,7.351838000000001,125.46723700000001
Sialkot,5,32.49235,74.531856
Omna district,5,32.910299,68.882423
Taluqan,5,31.442698999999998,65.31636800000001
Dariyah,5,33.150106,44.616755
Damadola,5,34.789406,71.46608
Kangpokpi,5,25.151716,93.969859
Jalame,5,32.507984,35.314251
Ofra,5,31.955101000000003,35.260324
Leninske,5,48.372005,37.88657
Tergaran,5,36.694386,71.14523299999999
Jurf Naddaf,5,33.242447,44.562172
Kwale,5,-4.173348000000001,39.446944
Keran,5,32.769095,74.800996
Tarnak Wa Jaldak district,5,31.803333000000002,66.323611
Osmaniye,5,37.074628000000004,36.2464
Tawakol,5,34.053467,44.933075
Tekeli,5,37.246734000000004,44.66326
Lalitpur,5,27.541967,85.33429699999999
Si Sakhon,5,6.148013,101.483016
Kharan,5,28.587362,65.420609
Mawand,5,29.653333,68.707778
Bodo,5,12.360178,14.459907000000001
Spin Wam,5,33.173749,70.401907
Shahr-e Safa,5,31.80262,66.324715
Mahdiyah,5,35.135667,44.086625
Dijlah,5,34.373264,43.76318
Al-Khums,5,32.646988,14.260969000000001
Nahr al-Imam,5,33.882822,44.723953
Barue district,5,-18.04359,33.258793
Jiwani,5,25.05258,61.74684499999999
Copenhagen,5,55.676109,12.568337
Khan Yunis,5,31.346964,34.301429999999996
Yambio,5,4.575553,28.395056
Isabela,5,6.700414,121.97255700000001
Sar Banader,5,30.622013,64.031136
Al-Qawarishah,5,32.006588,20.072470000000003
Aiyoeweng,5,5.929012999999999,101.3658
Pagatin,5,6.980848,124.482925
San Vicente,5,13.920492000000001,122.100999
Anah,5,34.367733,41.985275
Kottom district,5,14.202151,24.664285
Janale,5,1.808302,44.695141
San Calixto,5,8.40255,-73.20768000000001
Calabar,5,4.974080000000001,8.342447
Al-Ayn,5,13.800991,45.88572
Dalbandin,5,28.893738,64.405846
Maco,5,7.430002,126.04478
Daganbhuiyan,5,22.912357999999998,91.318004
Khao Tum,5,6.603948,101.33856999999999
Ayn al-Jahesh,5,35.998266,42.826547
Baramulla district,5,34.207566,74.352882
Nazimiye,5,39.179131,39.828445
Bani Walid,5,31.754255,14.007956
Arroyito,5,-23.266556,-56.450292000000005
Paluru,5,6.085224,101.879166
Brighton,5,50.826382,-0.142163
Mbau,5,0.651881,29.497663
Novoazovsk,5,47.119023999999996,38.067044
Sungai Padi,5,6.167326,101.91239300000001
Khairabad,5,36.374863,64.87876899999999
Chibok,5,10.869117,12.847487
Samah,5,14.483820000000001,44.482153000000004
Sadr al-Yusufiyah,5,33.136925,44.075092
Sapporo,5,43.090744,141.340726
San Miguel,4,0.343611,-76.910833
Anori,4,7.073611,-75.145833
Torez,4,48.046528,38.606784999999995
Lamphu,4,6.373608,101.812825
Jar Quduq,4,36.303825,65.482079
Zain Koh,4,26.653826000000002,63.955358
Limerick,4,52.65341899999999,-8.614203
Moirang,4,24.5,93.7667
Sangan,4,33.580833,64.995278
Bahawalpur,4,29.399281,71.673784
Kiunga,4,-1.7451599999999998,41.488803999999995
Zaria,4,11.063275,7.700373
Izvaryne,4,48.286797,39.891579
Guzara district,4,34.19829,62.221617
Mangajek district,4,36.934166999999995,66.113889
Gomal district,4,32.43483,69.001648
Kidapawan,4,6.997793,125.079419
Jalrez district,4,34.472681,68.667803
Yenagoa,4,4.921162000000001,6.274773000000001
Makiivka,4,48.04668,37.942146
Askira,4,10.65289,12.907513
Napnapan,4,7.125628999999999,125.963396
Chah Anjeer,4,31.680202,64.31221
Dyakove,4,47.949444,39.14
Hinimbangan,4,9.420658,125.620484
Hat Yai,4,7.008597,100.47465600000001
N'Djamena,4,12.126693,15.0284
Nampula,4,-15.125708,39.267027
Elian,4,6.767308,124.364521
Jurm district,4,36.867447,70.833887
Hawad,4,35.870968,43.296768
Skopje,4,41.996115,21.399967
Urgun district,4,32.943305,69.181585
Cibitoke,4,-2.888182,29.121218
Tank,4,32.209441999999996,70.383537
Damietta,4,31.417539,31.814443
Mizan district,4,32.176111,66.5125
Hawsh Nasri,4,33.557301,36.475063
Kamjong,4,24.856503,94.511082
Yamgan district,4,36.427778,70.79777800000001
Yingo,4,6.38534,101.701008
Edremit district,4,38.420904,43.249189
Dara-i-Pech district,4,34.99,70.912778
Maale Adumim,4,31.77347,35.298908000000004
Mahawil district,4,32.64915,44.408735
Ber,4,16.84048,-2.522825
Ajristan district,4,33.529032,67.21829100000001
Siirt,4,37.942229,41.936729
Maputo,4,-25.971414000000003,32.58676
Dawalib,4,34.072381,44.906386
Khanpur,4,33.80203,72.907667
Aranpur,4,18.49625,81.294556
Dayum,4,34.807835,43.057959000000004
Afade,4,12.237964,14.639470999999999
Sargodha,4,32.083738000000004,72.671074
Kerdasa,4,30.030554,31.110740999999997
Bab al-Hawa,4,36.230274,36.692928
Yana,4,11.405733,10.013577
San Agustin,4,7.494105,125.82610600000001
Florence,4,43.771033,11.248001
Amvrosiivka,4,47.792431,38.483189
Shariff Aguak district,4,6.867549,124.436448
Sangsila,4,29.086389,68.853889
Novoaydar,4,48.968681,39.001335
Beit Hanoun,4,31.53619,34.539574
Tall Tamr,4,36.657269,40.37056
Krasna Talivka,4,48.847633,39.838078
Digos,4,6.759496,125.350978
Vanimal,4,11.717132000000001,75.693595
Boni,4,15.075623,-2.219977
Al-Qubbah,4,32.762238,22.241188
Aliabad district,4,36.510918,68.903288
Sadda,4,33.703938,70.32865100000001
Buenos Aires,4,3.017089,-76.641926
Cucuta,4,7.891122,-72.505657
Thul,4,28.248983000000003,68.777084
Hamidhiyah,4,33.456459,43.392872
Tukanalipao,4,6.931122,124.511117
Ismailia,4,30.596139,32.271431
Chahar Dara district,4,36.630604999999996,68.810885
Bogra,4,24.8435,89.376297
Dumaria,4,24.443128,84.394695
Garbahaareey,4,3.3272800000000005,42.218563
Hajan,4,34.297985,74.615303
Azotey,4,-23.318849,-56.488096
Talubo,4,6.846686,101.269384
Ladha,4,32.566990000000004,69.831711
Cinar,4,37.723074,40.417115
Ghulam Khan,4,33.133961,70.034981
Satih,4,33.099591,44.583794
Ramallah,4,31.900337,35.22467
Parang,4,5.913349,120.90728700000001
Barawe district,4,0.9495950000000001,43.556059000000005
Banki,4,11.255011,14.150642000000001
Chaharbagh,4,34.531553,70.290137
Las Cruces,4,2.34996,-76.70002
Kokrajhar,4,26.384947999999998,90.276411
Gossi,4,15.822218,-1.301143
Sonada,4,26.980244,88.273549
Nihessiue,4,-14.760492999999999,39.320624
Mishada,4,33.596133,44.393084
Inhamitanga,4,-18.218737,35.160038
Lambar 50,4,1.9963959999999998,44.9884
Dawlat Shah district,4,35.003878,70.016021
Jableh,4,35.401883000000005,35.948314
Muang Narathiwat district,4,6.421131,101.82548
Nabalawag,4,7.062428999999999,124.51081699999999
Sukkur,4,27.708151,68.845112
Makhmur,4,35.768353000000005,43.588966
Maan,4,30.195645000000003,35.733422999999995
Rosario,4,8.312308999999999,126.00867
Shahat,4,32.804295,21.868214000000002
Ash Shihr,4,14.762732000000002,49.605728000000006
Bacho,4,6.2117309999999994,101.286392
Barajil,4,30.076843,31.158298
Pavlopil,4,47.236056,37.775877
Ngala,4,12.341004,14.187573
Buni Yadi,4,11.247069,12.01246
Kulgam,4,33.64542,75.019676
Gorongosa district,4,-18.685723,34.059551
Muna Gari,4,11.53955,13.155654
Chahar Burja district,4,30.134522999999998,62.262663
Kaninkon,4,9.50789,8.319861999999999
Zubin Potok,4,42.91648,20.690256
Ghorband district,4,34.926652000000004,68.848669
Sayyad district,4,36.041787,65.84274599999999
Dhobley,4,0.41211499999999995,41.008109999999995
Konduga district,4,11.650394,13.41841
Port Said,4,31.266208000000002,32.304858
Bango Sato,4,6.271587,101.69283100000001
Anar Dara district,4,33.079557,61.177437
Guwahati,4,26.149794,91.763931
Mosul district,4,36.258523,43.108132
Giro district,4,33.142355,68.383972
Qarghuliyah,4,33.253409999999995,44.607185
Tasp,4,26.985407000000002,64.055084
Kaura district,4,9.636866,8.499614999999999
Sonagazi,4,22.849681,91.393846
Qubah,4,36.411910999999996,43.042931
Dasht,4,28.608159999999998,66.31385
Bala Morghab,4,35.58567,63.328087
Jamshoro,4,25.416301999999998,68.286728
Azare,4,11.674167,10.191111
Allahabad,4,25.440483999999998,81.83847800000001
Sharawin,4,33.744625,44.959073
Shahrag,4,30.195354,67.713219
Tunis,4,36.809293,10.134260000000001
Kiziltepe,4,37.193111,40.587036
Abu Hadi,4,31.05238,16.661960999999998
Sandana,4,33.80686,70.734509
Mawali,4,36.325053999999994,42.840988
Kamyanka,4,48.427444,37.835751
Buratai,4,10.906089,12.089031
Datu Piang,4,7.0179990000000005,124.500099
Aksu district,4,41.244772,81.594601
Khudwani,4,33.726616,75.09123199999999
Yasynuvata,4,48.129265000000004,37.861473
Ta Kae,4,6.868669000000001,101.366
Nari Baba,4,33.891539,70.698065
Al-Hamamiyat,4,33.509014,44.202484000000005
Dnipropetrovsk,4,48.442791,35.02216
Bir Ahmad,4,34.806469,44.495682
At Tumah,4,31.169829999999997,34.087421
Maiduguri district,4,11.834653999999999,13.158617999999999
Poruwa,4,6.120496,80.482425
Sheikh Zuweid district,4,31.211645,34.110425
Libertad,4,10.779355,123.48876399999999
Netanya,4,32.321458,34.853196000000004
Sindij,4,32.840354999999995,44.233684000000004
Arusha,4,-3.366597,36.683372999999996
Sutayh,4,33.099823,44.583464
Waeng,4,5.928028,101.88418399999999
Swat district,4,35.166916,72.382112
Sydney,4,-33.888408,151.23721799999998
Sukma,4,18.391012,81.656929
Miaga,4,12.221115,123.82336699999999
Maywand,4,31.619314000000003,65.050156
Tessalit district,4,20.20993,1.007308
Charghat,4,24.278531,88.751805
Tarhouna,4,32.431385,13.638332
Kansas City,4,39.176086,-94.574127
Yahya Khel district,4,32.937222,68.646111
Visakhapatnam,4,17.696584,83.24478
Okrika,4,4.74159,7.08488
Nahrin district,4,36.064132,69.10114200000001
Mukhaysah,4,33.911194,44.735943
Tall Zalat,4,36.283566,42.830044
Day Mirdad district,4,34.216353999999995,68.295174
Tamenglong district,4,24.986384,93.503507
Pewar,4,33.869845,70.119553
Mandan,4,33.583889,70.537778
Islam Kala,4,34.668163,61.10948199999999
Bakwa district,4,32.241694,62.947807
Pulka,4,11.22223,13.783822
Shawal,4,32.613707,69.508426
Zerkoh,4,33.284046000000004,62.31640600000001
Kakapora,4,33.946834,74.92964599999999
Mitrovica,4,42.877353,20.861252
Garoua-Mboulai,4,5.89149,14.552101
Montreal,4,45.501689,-73.567256
Tbilisi,4,41.715299,44.782515000000004
Casisang,4,8.139037,125.124999
Jhenaidah,4,23.545313,89.172279
Midyat,4,37.420683000000004,41.350359000000005
Kayu Khla,4,5.97185,101.92360699999999
Netivot,4,31.425209000000002,34.594326
Reg district,4,30.810909999999996,63.769538
Gora Pari,4,34.696152000000005,71.126424
Pitumudi,4,6.741024,101.280408
Tagum,4,7.448212,125.80942399999999
Albu Rishah,4,33.467331,43.23251
Don Rak,4,6.837476,101.212712
Diafarabe,4,14.138889,-5.018889
Bangassou,4,4.746876,22.814779
Charmang,4,34.739215,71.34540799999999
Rann,4,12.268526,14.46611
Beir al-Abd,4,31.016779,33.008587
Kuwayfiyah,4,32.203339,20.170181
Iloilo,4,10.694922,122.54254099999999
Timilwada,4,18.257257,81.298996
Al-Obeidi,4,34.432587,41.229725
Pulwama district,4,33.981889,75.014382
Beit Horon,4,31.879593,35.124182
Batulawan,4,7.074574,124.668732
Mutaybijah,4,34.05911,44.215906
Wadi Hmeid,4,33.678303,35.965252
San Pedro,4,7.853864,123.328167
Warri South-West district,4,5.612642,5.201144
Idil,4,37.361051,42.019535
Jamui district,4,24.737557000000002,86.300157
Palma Gil,4,7.661141000000001,125.55897
Saghar district,4,33.69186,63.863831000000005
Harasta,4,33.561504,36.368763
Yarkand district,4,38.414229999999996,77.245807
Pandola,4,34.083760999999996,70.667489
Horsham,4,51.064194,-0.331918
Buleda,4,26.392501,62.909091000000004
Rodat district,4,34.25,70.56666700000001
Halimzai,4,34.344528000000004,71.367317
Jalalaqsi,4,3.3815839999999997,45.598389000000005
Dicle,4,38.374489000000004,40.072936999999996
Digboi,4,27.395391999999998,95.621735
Hpakant district,4,25.616667,96.316645
Ridkodub,4,48.268059,38.52132
Monkayo,4,7.8230710000000006,126.05536699999999
Vodyane,4,48.098675,37.663422
Kayu Boko,4,6.478405,101.425598
Guindulungan,4,6.9661729999999995,124.348699
Palmyra district,4,34.530573,37.627651
Okene,4,7.550660000000001,6.233911
Ado-Ekiti,4,7.616445,5.229451
Amerli,4,34.726269,44.584908
Sulaymaniyah,4,35.567009000000006,45.385494
Saint Petersburg,4,59.853370999999996,30.348433
Nasirabad,4,26.073483,62.720516
Manchester,4,53.49955799999999,-2.184666
Dargai,4,34.508115999999994,71.90916
Chankan,4,26.96674,64.100298
Kass,4,12.505613,24.288912
Albu Diab,4,33.448437,43.26757
Nertiti district,4,12.961400999999999,24.044116
Baaj,4,36.045059,41.716716999999996
Mir Hasan,4,28.645023,68.413037
Tall Safouk,4,36.06028,41.29466
Kurinbi,4,6.666652,72.996347
Arauca,4,7.078411999999999,-70.757347
Kuwayr,4,36.043509,43.489394
Richmond,4,51.504387,-0.140041
Talakivka,4,47.189751,37.724354
Akarkouf,4,33.351177,44.205009000000004
Baramulla,4,34.205605,74.35386700000001
Victoria,4,28.819306,-97.003321
Garoowe,4,8.403308,48.488014
Farhatiyah,4,34.030712,44.063866
Zarkah,4,34.752379,44.324843
Yaring district,4,6.828057,101.3885
Davao City,4,7.083241,125.600998
Khanaqin district,4,34.333333,45.383333
Garas Balley,4,2.077409,45.248965999999996
Kahan,4,29.277708,68.907099
Bagumbayan,4,7.184525,125.095929
Cork,4,51.909217,-8.497344
Jaji Maydan district,4,33.646074,70.08740300000001
Kulay Bato,4,6.665912,122.154839
Lilong,4,24.696348,93.933658
Monguno district,4,12.636044,13.686919
Sagrada,4,13.529941,123.45445
Krawa,4,6.756299,101.449966
Chainpur,4,24.014978,84.025986
Simferopol,4,44.951679,34.104599
Bauchi,4,10.340722999999999,9.854051
Hor al-Bashah,4,33.509014,44.202484000000005
Kupwara district,4,34.431923,74.12399599999999
Faqirabad,4,33.974899,71.69326
Aizawl,4,23.732869,92.717129
Dinsor,4,2.405815,42.97707
Kohistan district,4,35.322266,64.837092
Milan,4,1.293409,-75.490868
Altun Kupri,4,35.752293,44.147743
Izmir,4,38.395649,27.135640999999996
Karak,4,33.111855,71.103126
Nurar,4,32.90382,70.53578900000001
Rubizhne,4,49.01,38.371389
Mershing,4,12.717388,24.900562
Baton Rouge,4,30.433483000000003,-91.080857
Concepcion,4,-23.406726000000003,-57.440677
Fresco,4,5.106041,-5.585363
Samakkhi,4,6.429197,101.580052
Gaya district,4,24.795634,84.999464
Tame,4,6.46052,-71.72989
Huyum,4,10.769333,13.146207
Jani Khel,4,32.800575,70.49556
Toronto,4,43.720507,-79.338778
Ghundi,4,34.005697,71.34358399999999
Gamba,4,-2.279348,40.180485
Awaran,4,26.457338,65.23111
Kandh Kot,4,28.245169,69.183701
Rustaq district,4,37.141667,69.80444399999999
Ovacik,4,39.358333,39.216111
Barkhan,4,29.927023,69.776988
Genc district,4,38.681707,40.685157000000004
Chintalnar,4,18.340367999999998,81.18164
Sabarang,4,6.867858999999999,101.25206800000001
Surkh Rod district,4,34.399440999999996,70.246154
Jessore district,4,23.163957,89.213004
Achabal,4,33.68506,75.219862
Shindand,4,33.391487,62.258404000000006
KwaMashu,4,-29.739859999999997,30.9818
West Singhbhum district,4,22.355911,85.51946600000001
Waza,4,11.403058,14.567839000000001
Banbury,4,52.063266,-1.339323
Lubo Yilai,4,6.716422000000001,101.4189
Rivne,4,50.6206,26.247984999999996
Malagakit,4,7.27843,124.424696
Myinlut,4,20.627222,92.5025
Waza Khwa district,4,32.208289,68.33873
Dand Patan district,4,33.773047999999996,69.89196700000001
Sabunjiya,4,35.530457,44.134772
Loa,4,3.787898,31.982857
Chahar Shanbeh Tepa,4,36.310452000000005,68.833878
Toledo,4,7.309025999999999,-72.483972
Kharlachi,4,33.827778,69.964722
Shamulzayi district,4,31.888583,67.816192
Basak,4,7.2138860000000005,125.117251
Bijanbari,3,27.068953000000004,88.192205
Sousse,3,35.893074,10.59688
Ummarari,3,11.911556,12.805233
Malabon,3,14.672042000000001,120.957726
Kamdesh district,3,35.480785,71.32378100000001
Mahmudiyah district,3,33.129042999999996,44.370626
Derbent,3,42.05,48.3
Chahar Bolak district,3,36.74498,66.721979
Nam Dam,3,6.60593,101.44495
Kuje,3,8.884813000000001,7.231787
Suwayda,3,32.709763,36.567642
Karabilah,3,34.387235,41.047971000000004
Bitaugan,3,8.540491000000001,126.114476
Damboa,3,11.151905000000001,12.758704
Yupo,3,6.588964999999999,101.263747
Singra,3,24.502760000000002,89.142393
Laak,3,7.83385,125.81708400000001
Arghistan district,3,31.571540000000002,66.504097
Gouripur,3,24.760025,90.56885600000001
Dukalam,3,35.304444000000004,71.54722199999999
Paphos,3,34.771839,32.431502
Gomia,3,23.806834,85.824463
Nyanzale,3,-0.999291,29.098716999999997
Maidan,3,34.969009,71.846772
Kandao,3,34.484444,71.246111
Deleig,3,12.475144,23.26631
Al-Ali,3,33.98333,45.048731
Koraput district,3,18.8083,82.7083
Paklo,3,6.618527,101.18866700000001
Oron,3,4.8073690000000004,8.237705
Ramgarh district,3,23.602689,85.542244
Kajran district,3,33.243261,65.463421
Pagalungan,3,7.1417850000000005,124.382019
Af Urur,3,11.264581,49.251518
Bidhannagar,3,22.583071,88.406166
Pishin district,3,30.688165,67.011904
Battagram district,3,34.7757,73.072909
Binan,3,14.349670999999999,121.06136599999999
Muradiye district,3,38.994541999999996,43.767263
Aktobe,3,50.291965000000005,57.210570999999995
Katarko,3,11.503731,11.940005000000001
El Tarra,3,8.045866,-73.081688
Kasserine,3,35.166361,8.833522
Bang Pu,3,6.869696,101.353193
Mara,3,-14.086628,-72.102182
Prestwich,3,53.517998999999996,-2.2715799999999997
Tangail district,3,24.427145,89.93112099999999
Bama,3,11.526846,13.69271
Karampur,3,28.100903999999996,68.932327
Mardin,3,37.312903000000006,40.733951
Saihat,3,26.491509999999998,50.008725
Shaheedano Dhand,3,33.511486,70.296379
Mandaluyong,3,14.584232,121.03903999999999
Kralagund,3,34.353333,74.343333
Jalandhar,3,31.352751,75.58428
Damboa district,3,11.107834,12.761358
Uludere,3,37.445596,42.853016
Maghar,3,32.88984,35.40703
Coimbatore,3,11.016845,76.955832
Zhob,3,31.343124,69.452866
Madhabdi district,3,23.848101,90.67018900000001
Laksam,3,23.238429999999997,91.12331
Adam Khan,3,31.817767,64.557478
Ghayl Ba Wazir,3,14.769764000000002,49.374268
Hathras,3,27.600270000000002,78.04991899999999
Karubaga,3,-3.684015,138.479002
Al-Salam,3,11.95041,24.951732
Kharwar district,3,33.692575,68.91327700000001
Lamluda,3,32.782909000000004,22.144466
Taybet al-Imam,3,35.266373,36.710999
Jawand district,3,34.925508,64.147824
Logo district,3,7.689989999999999,9.251267
Gouzoudou,3,11.110399000000001,14.038569
Daquq,3,35.087589,44.322023
Hindi,3,-2.17928,40.815469
Dundalk,3,53.993846999999995,-6.396594
Aduwari,3,11.509748,12.978912
Hafriyah,3,32.990784999999995,44.839572
Convencion,3,8.868789999999999,-73.19409399999999
Zaida,3,34.062465,72.47605300000001
Sabong,3,6.601767999999999,122.17325
Chapainawabganj,3,24.579342999999998,88.267296
Bazidkhel,3,33.953468,71.542061
Jani Khail district,3,32.76073,68.39332399999999
Adzope,3,6.107146,-3.855351
Rozhnyativ district,3,48.936389,24.154722
Jalazun,3,31.951612,35.212517
Lahad Datu,3,5.0242059999999995,118.33074599999999
Albu Tumah,3,34.820454999999995,43.550298
Tulunan,3,6.828261,124.884285
Sur,3,32.475288,62.202118000000006
Tacurong,3,6.688606,124.67996200000002
Zain Loti,3,28.95,69.06666700000001
Al-Khader,3,31.692922999999997,35.171749
Chandia,3,29.485186,68.060424
Imphal West district,3,24.789228,93.871093
Matalam,3,7.064122,124.91332299999999
Grabo,3,4.916484,-7.495143
Damanhour,3,31.042644,30.472794
Mangal,3,6.41871,121.972443
Eruh district,3,37.7504,42.180026
Lash Wa Juwayn district,3,31.498091,60.874598
Jaghatu district,3,33.770837,68.3697
Khalis district,3,33.843044,44.521936
Colombo,3,6.941837,79.861687
Usaylan district,3,15.052266,45.835899
Rueso Ok,3,6.394265,101.536173
Sirtych,3,41.833223,48.228373
Bandar,3,35.351442999999996,64.58884300000001
Bharatpur,3,27.683483000000003,84.433297
Tunceli,3,39.106709,39.545246
Al-Kubayshat,3,33.438258000000005,43.962718
Antipolo,3,8.800343,126.30001299999999
Bologna,3,44.494523,11.343047
Hudur,3,4.120602,43.890526
Kagizman district,3,40.138807,43.12285
Wah,3,33.771634000000006,72.751487
Koh Sayad,3,36.268806,64.850914
Chamkani district,3,33.802183,69.832937
Pariya,3,18.325329,81.429048
Torghar,3,30.031270000000003,67.904108
Chakdara,3,34.650264,72.03394300000001
Ore,3,6.751852,4.877997
Bhagalpur,3,25.250344000000002,86.997063
Dooru,3,34.045268,74.732975
Kitkoot,3,34.801837,71.515011
Hirske,3,48.749912,38.501175
Purong,3,6.438798,101.241127
Kirandul,3,18.708305,80.995499
Gilgit,3,35.920544,74.302154
Beira,3,-19.833446,34.850246000000006
Delaram,3,32.164997,63.425297
Hud,3,35.870968,43.296768
Sayed Karam district,3,33.688122,69.526124
Mexico City,3,19.371887,-99.086624
Chonhar,3,46.029471,34.545481
Dijon,3,47.312907,5.0660680000000005
Paitan,3,6.723,124.519997
Bakhmutivka,3,48.867129999999996,39.052082
Tikalaan,3,8.035507,124.626297
Tumaco district,3,1.80813,-78.76893000000001
Malakal,3,9.529987,31.655478999999996
Columbus,3,40.064023999999996,-82.86381800000001
Takht Bhai,3,34.285351,71.932114
Bare Nuea,3,6.5752630000000005,101.63271
Bindisi,3,11.938404,23.099339999999998
Jilib,3,0.495342,42.777893
Gor Tepa,3,36.820141,68.682091
Mangaluru,3,12.911032,74.856202
Qaimoh,3,33.724277,75.083946
Yei,3,4.095271,30.677505
Khairpur,3,27.529637,68.75825
Mubarak al-Farhan,3,34.466954,44.424649
Mazrah,3,34.884941,43.492664000000005
Gandaher,3,33.301018,68.40501400000001
Ziarat-e Khvajeh Owrya,3,33.514928000000005,62.258534999999995
Shumy,3,48.383684,37.929742
Abakaliki,3,6.336433,8.105557000000001
Baezai,3,34.461110999999995,71.09916700000001
Lebedynske,3,47.126087,37.755257
Balite,3,7.238969,125.142004
Enugu,3,6.447739,7.520525999999999
Salem,3,32.210541,35.332097999999995
Afmadow,3,0.515545,42.073344
Zakha Khel,3,34.065585999999996,71.19367199999999
Warri South district,3,5.517021,5.750006
Al-Falahat,3,33.665284,44.317469
Barisal,3,22.699901,90.36605
Kamjong district,3,24.869811,94.512567
Al-Khasfah,3,34.17971,42.252369
Jaar,3,13.219398000000002,45.307838000000004
Lahan,3,6.3961239999999995,101.723403
Datu Unsay district,3,6.912223,124.453097
Tumtish,3,-1.2042329999999999,40.916558
Finschhafen,3,-6.598433999999999,147.853302
At Tawil,3,31.110284999999998,33.932247
Saravena district,3,6.958717,-71.882112
Hazar Ganji,3,30.098260999999997,66.94448100000001
Minya,3,28.087096999999996,30.761840000000003
Polampalli,3,18.184535999999998,81.411415
Lima,3,-11.967367999999999,-76.978462
Madain district,3,33.099908,44.583245
Tha Muang,3,6.742303,100.99243299999999
Hargeysa,3,9.556936,44.074135
Michni,3,34.198132,71.433029
Aylsham,3,52.796163,1.2546329999999999
Halabsah,3,33.332394,43.712821999999996
Bria,3,6.5374669999999995,21.992534
Kashmore,3,28.431627000000002,69.581108
Kotri,3,25.354671,68.283569
Saint Denis,3,48.929565000000004,2.359244
Shadananda,3,27.342725,87.101679
Esperanza,3,12.923378999999999,123.675023
Kauswagan,3,8.113273,125.607828
Mardan district,3,34.308215999999994,72.046499
Kundasi,3,23.179167,89.656111
Panjab district,3,34.385815,67.022095
Arar,3,30.978895,41.018
Karimganj,3,24.460489000000003,90.866653
Angor Bagh,3,36.668369,68.882607
Kokab,3,35.29937,36.802521
Maimbung,3,5.933101000000001,121.025107
Fairfield,3,38.280951,-122.03404599999999
Homeka,3,10.99087,14.231454000000001
Al-Harth,3,16.889359,42.570567
Dar es Salaam,3,-6.8135460000000005,39.239418
Azizabad,3,33.34964,62.33371700000001
Simsiman,3,7.278525,124.4242
President Quirino,3,6.702103999999999,124.74153899999999
Likoni,3,-4.090508,39.647758
Sogratl,3,42.98542,47.450668
Bawizah,3,36.434563,43.158421000000004
Dand-e-Ghori,3,35.760151,68.920891
Samba district,3,32.561111,75.12472199999999
Sofia,3,42.68243,23.367019
Atmeh,3,36.310444,36.689156
Basaguda,3,18.561113,80.920395
La Montanita,3,1.527288,-75.482252
Vilkhove,3,48.676868,39.572266
Mubi,3,10.266862,13.266931
Athba,3,36.228695,43.105652
Buayan,3,7.038127,124.48862199999999
Nasir Bagh,3,34.02953,71.418648
Barangak,3,32.453788,62.031136
Conakry,3,9.517441,-13.693323000000001
Goniri,3,11.485018,12.311891000000001
Indanan,3,6.00009,120.96654699999999
Khewa,3,34.171831,70.621679
Utmanzai,3,34.515471000000005,71.32874699999999
Al-Arifiyah,3,33.203365999999995,44.514582
Maluso,3,6.545399,121.873756
Naag,3,27.410787,65.13435
Portadown,3,54.42071,-6.443767
Budapest,3,47.494937,19.043319
Krong Pinang,3,6.409722,101.28041400000001
Am Chide,3,11.236522,14.126195000000001
Ban Rae,3,6.121642,101.19045799999999
Jablah,3,32.747787,44.611571999999995
Akkar district,3,34.53774,36.152568
Metula,3,33.277232,35.578235
Sadawa,3,6.819884,101.309038
Chana,3,6.909565,100.740085
Mansura district,3,12.846425,44.978569
Al-Zubair district,3,30.383333,47.7
Birbanki,3,22.890832,85.513136
Arakan,3,7.3537669999999995,125.14744499999999
Trichal,3,33.850486,74.918527
Oleksandrivsk,3,48.586346999999996,39.190783
Khwaja Umari district,3,33.691658000000004,68.399849
Baskale,3,38.0476,44.015454
Hizan district,3,38.18643,42.527204
Melbourne,3,-37.814107,144.96328
Valencia,3,7.904959,125.09111000000001
Umzimkhulu,3,-30.26335,29.938265
Tenenkou,3,14.456878,-4.91545
El Geneina,3,13.440885999999999,22.441727
Tura,3,25.516883,90.202877
Aswan,3,24.089354,32.898328
Gichak,3,27.042338,64.916542
Shagai,3,34.109103999999995,71.411621
Cadale,3,2.760456,46.321079
Mo Mawi,3,6.6672199999999995,101.30341
Hazro,3,38.252338,40.781574
Maftulah,3,34.792691,44.666582
Mar Gat,3,30.117651000000002,67.28394300000001
Albu-Khaddu,3,34.341104,43.808135
Mirza Wulang,3,35.97287,65.798294
Huwaysh,3,33.688056,44.418889
Thoubal district,3,24.658042000000002,93.980085
Al-Birth,3,30.996140000000004,34.247173
Churachandpur district,3,24.299357999999998,93.258363
Bwalanda,3,-0.791773,29.045993
Datu Saudi Ampatuan,3,6.9517679999999995,124.44839499999999
Pitogo,3,7.450833,123.313529
Patikul district,3,6.063022,121.102294
Campo Alegre,3,8.608345,-73.316615
Baga,3,13.094631,13.820418
Golweyn,3,1.6582830000000002,44.580025
Jhenaidah district,3,23.514196,89.178715
Karlapat,3,19.690278,83.118611
Nasir,3,35.366667,44.133333
Balu,3,23.830935,84.660133
Gramkan,3,26.997722999999997,64.115746
Zhob district,3,31.337853000000003,69.32917900000001
Lala Maydan,3,36.512218,68.875984
Samawah,3,31.300213,45.277091999999996
Muratove,3,48.80304,38.737709
Amas,3,24.626284,84.656242
Ghakhi,3,34.832778000000005,71.546389
Karkamis district,3,36.835813,37.995306
Gourma Rharous,3,16.88,-1.9238
Marantao,3,7.950052,124.232804
Hua Hin,3,12.568375,99.957689
Bhejji,3,18.022222,81.306944
Mazdaki,3,34.043884999999996,70.53805799999999
Abaji,3,7.178223,9.459914999999999
Patong,3,11.169659,124.853559
Sateng Nok,3,6.548106,101.305712
Karranah,3,26.231721999999998,50.509521
Butuan,3,8.948336,125.54269
Jabaliya,3,31.537834000000004,34.489532000000004
Ghat,3,24.965556,10.18
Sozma Qala district,3,36.099845,66.207712
Bijapur,3,19.007832,81.05793
Farsi district,3,33.825784000000006,63.385130000000004
Ngouboua,3,13.549230999999999,14.052937
Chishti Sharif district,3,34.338238,63.748431999999994
Serai Naurang,3,32.823055,70.783745
Chinari,3,34.599888,71.20826
Lysychansk,3,48.916637,38.400061
Dimona,3,31.070501,35.030529
Al-Mukharram,3,34.762303,37.553453000000005
Dih Bala district,3,34.09263,70.469224
Dumri,3,23.810237,85.7652
Yeniaslanbasar,3,37.623633,42.352792
Wajid district,3,3.808333,43.2475
Rio Verde,3,-23.759724,-56.494923
Pasay,3,14.530948,121.00425700000001
Tapoyo,3,6.462991000000001,101.66228100000001
Mangochar,3,29.347738,66.64076999999999
Derik,3,37.364657,40.267936999999996
Pantukan,3,7.133176,125.894725
Antalya,3,36.896891,30.713323
Kasik,3,36.469528000000004,42.670578000000006
Zummar,3,36.764834,42.636047999999995
Khanabad,3,36.681515999999995,69.114807
Akhnoor,3,32.899421000000004,74.74246099999999
Nawada district,3,24.875427,85.504655
Dalang,3,12.050744,29.660196000000003
Constantine,3,36.382601,6.633713
Khebda,3,42.443478999999996,46.547670000000004
Mansouriyah,3,34.040833,45.005556
New Cairo,3,30.026531,31.456419
Daraban,3,31.730465000000002,70.33671600000001
Shirin Tagab,3,36.079561,64.905955
Handwara,3,34.399281,74.281273
Raja,3,8.470082000000001,25.678476
Mosa Khail district,3,33.547356,69.740414
Patae,3,6.350745,101.139088
Qalqilya,3,32.196015,34.981513
Gichk,3,27.042081,64.910837
Hnutove,3,47.205290000000005,37.759419
Gawak,3,26.106995,62.070503
Bushmills,3,55.205059999999996,-6.52346
Warri North district,3,5.883931,5.276514
Dhubab district,3,12.765967,43.5174
Cheringoma district,3,-18.687127,35.227292
North Garo Hills district,3,25.905133,90.486719
Boghavi,3,36.165382,66.090942
Bahir Dar,3,11.592294,37.3826
Derik district,3,37.364657,40.267936999999996
Witten,3,51.444674,7.367783
Raanana,3,32.181371,34.870903000000006
Tora Warai,3,32.499731,70.369447
Teorama district,3,8.43557,-73.28742
Hulugho,3,-1.15,41.066666999999995
Blarney,3,51.934359,-8.566961000000001
Kholu district,3,29.673863,68.715498
Mansehra,3,34.332588,73.202805
Kawasoti,3,27.643622999999998,84.124776
Wangoi,3,24.676034,93.896713
Irbin,3,33.539059,36.366710999999995
Ranchi,3,23.369968,85.325012
Coleraine,3,55.153234,-6.6635089999999995
Phutthamonthon,3,13.824812,100.293756
Gush Etzion,3,31.695183,35.114476
Lashio,3,22.933332999999998,97.75
Alisher,3,33.449841,70.064041
Nawabad,3,34.821667,71.112778
Bayindir,3,38.220222,27.646234999999997
Wajid,3,3.810951,43.246506
Obryv,3,47.098812,38.191677
Anislag,3,13.076936,123.701406
Tarout,3,26.577352,50.075286
Halgan,3,4.210529,45.56049
Sartana,3,47.177467,37.691212
Shesh Ab,3,31.508707,62.700644999999994
Corte,3,42.309765999999996,9.149094
Bue Re,3,6.704522,101.58716
Furqlus,3,34.602982,37.086327000000004
Poso,3,-1.393746,120.75588700000002
Gordzad,3,36.183876,64.875046
Murdanda,3,18.569995000000002,80.80904699999999
Mangoli,3,28.46681,68.274078
Bostan,3,30.431589000000002,67.01773100000001
Borki,3,33.859184,69.94654799999999
Bualan,3,7.7475380000000005,123.146464
Tal Afar district,3,36.407343,42.378840999999994
Abud Wak,3,6.148337000000001,46.398487
Wau,3,7.699508,27.998528000000004
Shedarki,3,10.894083,10.380403
Hirkse,3,48.749912,38.501175
Suran,3,35.291439000000004,36.748001
Mutanda,3,-8.058200999999999,29.466666999999998
Balkh district,3,36.75506,66.897537
Dantewada,3,18.9,81.35
Kayomati,3,6.547427,101.643762
Arab Jasim,3,33.303566,44.371773
Balete,3,7.100287,125.125998
Hazaribagh,3,23.996872,85.371765
Daronta,3,34.475151000000004,70.362976
Dargecit,3,37.546181,41.719615999999995
Loy Bagh,3,31.630932,64.258698
Toribio,3,2.958056,-76.271389
Gayabari,3,26.862178999999998,88.315791
Farisiyah,3,32.911625,44.150585
Abu Kabir,3,30.725534999999997,31.669912
Sirvan district,3,38.064766,42.033468
Yosuf Khel district,3,33.048618,68.653341
Hambagda,3,11.020053,13.545297
Tiskopi,3,23.896507999999997,85.69704200000001
San Ramon,3,16.029467999999998,120.473846
Jisr Diyala,3,33.223114,44.540776
Miryan,3,32.98792,70.608412
Shib Koh district,3,32.111944,61.38916700000001
Dulab,3,33.889561,42.623253000000005
Mukashafah,3,34.365089000000005,43.74522
Az Zahir district,3,14.0475,45.381111
Shakh,3,35.573611,64.1125
Sarkeguda,3,18.532139,80.944672
Shahrak district,3,34.016449,64.526645
Taluban,3,6.712826,101.641819
Alegria,3,6.154806,125.29006000000001
Barguna,3,22.159426999999997,90.119766
Murran,3,33.86652,74.864548
Fadiliyah,3,32.904771999999994,44.177959
Jamuria,3,23.708554,87.084012
Sirawai,3,7.586326,122.14076599999999
Lutsk,3,50.746932,25.325382
Tall Abyad,3,36.695915,38.946732
Lower Tungawan,3,7.590152000000001,122.40141899999999
Shorah,3,36.262457,42.280571
Sari Pul district,3,36.21759,65.931873
Nawfaliyah,3,30.780207,17.837408
Baku,3,40.41724,49.903461
Nisatta,3,34.103279,71.796265
Hacari district,3,8.328091,-73.146235
Itsa,3,29.238157,30.797907000000002
Lisala,3,2.1486110000000003,21.513610999999997
Sevare,3,14.527126,-4.094176
Kinsibba,3,35.742489,36.165015999999994
Kissufim,3,31.374899,34.398018
Yerevan,3,40.17857,44.535763
Satila,3,57.543158,12.437561
Isplinji,3,29.608364,67.051613
Ghajar,3,33.272607,35.623637
Kulp district,3,38.656295,41.229175
Beni Shiek,3,11.808727000000001,12.495786
Stockholm,3,59.332260999999995,18.073315
Baraya district,3,3.15243,-75.05271
Urumqi,3,43.801097,87.595828
Ahoghill,3,54.823455,-6.3899919999999995
Dhangadhi,3,28.703241,80.585625
Sheikh Baba,3,34.711784,71.171524
Toshkivka,3,48.780556,38.569576
Sijalah,3,33.916257,44.246646999999996
Gupitan,3,7.837467999999999,125.611574
Elbeyli district,3,36.675086,37.469106
Gulran district,3,35.153188,61.739385
Al-Harath,3,16.889585999999998,42.560818
Asadabad district,3,34.84451,71.13185
Kuala Lumpur,3,3.138943,101.691315
Baure,3,-1.7167139999999999,40.966588
Tigbao,3,7.8222380000000005,123.230397
Albu Ajil,3,34.582001,43.724945
Kashgar,3,39.469409000000006,75.99006700000001
Hurghada,3,27.205332000000002,33.803768
Bonbon,3,6.064029,121.159058
Kingston,3,18.021429,-76.79827900000001
Netrakona district,3,24.883945,90.793548
Labu-Labu,3,6.867985000000001,124.47638899999998
Dhadar,3,29.492079999999998,67.637338
Abu Dis,3,31.763582,35.257721999999994
Dih Sabz district,3,34.659199,69.245255
Libreville,3,0.412811,9.460859
Bagerhat,3,22.655452,89.766153
Austin,3,30.283580999999998,-97.698654
Cayamcam,3,7.501849000000001,122.367499
Santa Rosa,3,14.276770999999998,122.705349
Wazir Dhand,3,34.00135,71.41416
Kingking,3,7.134753,125.89391599999999
Shaygal Wa Shiltan district,3,35.118056,71.22833299999999
Shakai,3,32.5886,70.06252099999999
Zalingei district,3,12.9,23.483333
Damasa,3,3.1598349999999997,41.32566
Askari,3,35.45211,44.375465000000005
Obi district,3,8.366667,8.766667
Santa Fe,3,8.474003,126.118471
Galgalo,3,10.989985,49.056877
Manogay,3,34.988941,70.91121700000001
Ibrahim Ali,3,33.389721,44.235367
Fawkner,3,-37.698178999999996,144.965079
Duki,3,30.155661,68.575951
Dalu,3,25.208212,90.230856
Bara Bandai,3,34.824444,72.394524
Bang Kro,3,6.751508,101.094803
Manar,3,33.213947999999995,68.386179
Tajoura,3,32.857067,13.338508
San Pablo,3,14.074629999999999,121.324524
Chatra district,3,24.203574,84.855037
Ghariza,3,34.002559999999995,71.401825
Najaf,3,32.054999,44.319854
Karubi,3,6.566725999999999,101.553282
Sumisip district,3,6.532280999999999,121.998024
Halamish,3,32.006058,35.125931
Tirana,3,41.329434,19.822372
Maldar,3,33.307544,62.157357999999995
Sipah,3,33.882778,70.895278
Al-Anad,3,13.206995000000001,44.758297
Band Taimor,3,31.557064,64.87709
Maqsha,3,26.222639,50.516018
Mirchaiya,3,26.830074,86.26606899999999
Bekaot,3,32.243008,35.456097
Krong Pi Nung district,3,6.426133999999999,101.28134399999999
Dagohoy,3,7.734803,125.512622
Damurhuda,3,23.604813,88.776955
Kirundo,3,-2.581607,30.116865
Liboi,3,0.349466,40.875992
Fayzabad district,3,36.807024,66.498941
Dhi Naim district,3,14.324062,45.498185
Fadan Karshi,3,9.688993,8.165353
Bunga,3,1.378765,24.389221
Shabak,3,33.423333,70.368889
St. Louis,3,38.656298,-90.413024
Ceylanpinar,3,36.853066999999996,40.047375
Bagacay,3,12.515989999999999,123.666215
Kafr el-Sheikh,3,31.111960999999997,30.942169
Udayn,3,13.966953,44.002258000000005
Ballycastle,3,55.201671,-6.253966
Taraza district,3,7.582642,-75.399712
Feni,3,22.972635,91.425768
Tawilah district,3,13.522688,24.851007
Haripur,3,34.000643,72.937174
Vina del Mar,3,-33.010692999999996,-71.527794
Mizdah,3,31.445839000000003,12.989232000000001
Qurghan district,3,36.964859000000004,65.054734
Abonnema,3,4.722939,6.778846000000001
Gudar,3,34.895247999999995,71.732644
Chadoora,3,33.946251000000004,74.798309
Tajiyat,3,33.42767,44.306255
Dugaa,3,6.611511999999999,122.263054
Ara,3,25.554959,84.658611
Saraqib,3,35.868511,36.804665
Maiaca,3,-14.308862,37.564415000000004
Shahabuddin,3,36.035538,68.643112
Usta Muhammad,3,28.176521,68.04502099999999
Toulouse,3,43.604935,1.448895
Chokpot,3,25.32384,90.41940799999999
Siraha,3,26.617262,86.701389
Karukh district,3,34.51248,62.661776
Tabuk,3,17.466863,121.465383
Bengaluru,3,12.971789999999999,77.594498
Pamalian,3,6.936603999999999,124.470583
Tabaj,3,34.300802000000004,45.100046999999996
Tha Sap,3,6.531716,101.246712
Siayan,3,8.132887,123.101174
Imelda,3,12.292753999999999,125.13779
Isulan,3,6.632111,124.59776399999998
Sanliurfa,3,37.177044,38.794146999999995
Freital,3,51.000867,13.651241
Baskale district,3,38.0476,44.0149
Shuwa,3,10.831911,13.558751999999998
Butembo,3,0.14954,29.283704999999998
Magdeburg,3,52.1173,11.626891
Ziruk district,3,33.16506,69.319085
Lidon,3,6.542778,101.199167
East Garo Hills district,3,25.565254,90.526723
Mlang,3,6.946148,124.878082
Narayanganj,3,23.618999,90.498032
Semdinli,3,37.303442,44.57696
Katong,3,6.48677,101.05998100000001
Yumbis,3,-0.187541,40.382036
Nakhl,3,29.905632,33.749462
Otniel,3,31.438812,35.028163
Abraka,3,5.788824,6.100338
Zaytseve,3,48.409203000000005,38.020515
Nguetchewe,3,10.999303999999999,13.941953
Qantara Gharb,3,30.647353999999996,32.253088
Keegam,3,33.787334,74.863871
Chapagedda,3,17.862932,82.197868
Sayd Ahmad Khel,3,34.215267,70.166862
Dolev,3,31.926797999999998,35.13261
Luuq Jeelow,3,4.554515,45.250362
Nasr,3,30.084629,31.334314000000003
Buraiqeh district,3,12.754318,44.860942
Wardiyah,3,33.100297999999995,44.583139
Talisay,3,10.243998,123.833281
Chah Ab district,3,37.447059,69.86614499999999
Pabna district,3,24.092858,89.359252
Kamuya,3,11.509748,12.978912
Alizai,3,33.532871,70.351837
Koulfoua,3,13.003044000000001,14.738038000000001
Madrid,3,40.465595,-3.6962629999999996
Casay,3,13.831945000000001,122.878003
Meta,3,6.885039,124.407472
Muniguda,3,19.626874,83.490318
Yola,3,9.203496000000001,12.495389999999999
Cawayan,3,13.836559,122.832477
Jallam,3,34.440816999999996,44.172027
Kot Azam,3,32.088314000000004,70.20053100000001
Kashfa,3,-1.332759,31.806125
Dabanga,3,11.917778,14.643056
Sukhirin district,3,5.9532300000000005,101.69544300000001
Pandanguo,3,-2.2166669999999997,40.483333
Rangamati,3,26.677540999999998,93.931647
Djakana,3,11.243041999999999,14.141388000000001
Baglar district,3,37.924973,40.210983
Maroua,3,10.592528999999999,14.321009
Ganderbal,3,34.217723,74.771973
Udalguri district,3,26.746018,92.095943
Dzerzhynsk,3,48.392815,37.844547
Diyadin,3,39.541106,43.685981
Taunggyi,3,20.782928,97.037214
Bandgaon,3,22.864679000000002,85.325553
Sudan-Safari,3,5.561641000000001,31.828491999999997
Vuhlehirsk,3,48.312065000000004,38.274978999999995
Jinkhani,2,32.482463,62.031096999999995
Baykan district,2,38.159069,41.732154
Berd-Yurt,2,43.332135,44.982481
Arzo,2,33.462053999999995,68.496247
Banaoang,2,15.993004,120.431352
Uvira,2,-3.372898,29.145108
Gorjak,2,36.769444,66.48083299999999
Tassgilat,2,20.129129000000002,-4.3389050000000005
Khandh Kot,2,28.245169,69.183701
Calgary,2,51.038021,-114.06098899999999
Hotan district,2,37.114157,79.922211
Venkatapuram,2,17.825029,81.37170400000001
Maluso district,2,6.546997,121.880423
Tanyong Dalo,2,6.811967999999999,101.42460600000001
Pasto,2,1.206613,-77.275885
Bastar,2,19.203677,81.934386
Chehe,2,6.253156,102.061892
Buri,2,26.147871,50.498844
Madhowa,2,-1.013578,42.030766
Masyaf,2,35.065342,36.342086
Todeng,2,6.1175559999999995,101.85906999999999
Buale district,2,1.157334,42.572955
Barobo,2,8.538231,126.119813
Barranquillita,2,1.543216,-72.288388
Inug-og,2,7.046425,124.68181499999999
Tarusan,2,8.656259,117.510498
Ituri district,2,1.85,29.966666999999998
Amsterdam,2,52.370021,4.894957
Foshan,2,23.028956,113.143441
Gambaru,2,12.359468,14.210929
Ahangaran,2,34.470779,65.06145500000001
Osogbo,2,7.778402000000001,4.552943
Shamilskiy district,2,42.416216999999996,46.494561
Nir Oz,2,31.310932,34.402058000000004
Tingginambut,2,-3.718583,138.06164099999998
Ali Khail district,2,33.976122,69.682588
Al-Faris district,2,33.663533,44.378029
Grenoble,2,45.192298,5.704905999999999
Jidhafs,2,26.218794,50.533783
Mareerey,2,2.135089,45.056831
Tall Abtah,2,35.944855,42.564484
Walungu district,2,-2.6213889999999997,28.669444
Dalim,2,33.118666999999995,44.47716
Khurai,2,24.798346,93.94043
Adina,2,34.22007,72.26841
Southern Ijaw district,2,4.700105000000001,5.967528
Ayoun Moussa,2,29.864917,32.655393
Sukhirin,2,5.95214,101.712705
Kaga-Bandoro,2,6.997777,19.180971
Tulsipur,2,28.127792,82.295006
Kanisk,2,32.532429,62.325817
Ben Gardane,2,33.129326,11.202468
Tangao,2,8.777991,125.569465
Quito,2,-0.21118800000000001,-78.52262900000001
Awapalli,2,18.583752,80.769661
Kut,2,32.533287,45.829453
Gokurt,2,29.559907,67.475796
Kent,2,41.151765999999995,-81.34865400000001
Lipa,2,13.940875,121.160339
Bakhtiar,2,32.748993,67.712624
Kulan,2,-0.690653,40.308863
Dashin-Sempora,2,33.650754,75.01802099999999
Harad,2,16.41489,43.10772
Fafi,2,-0.39376700000000003,40.326615999999994
Bordumsa,2,27.514186,95.877672
Sao Paulo,2,-23.582734,-46.611418
Phron,2,6.562239999999999,101.244321
Puli Alam district,2,33.999978999999996,69.01983100000001
Rohri,2,27.685909000000002,68.886484
Al-Bazul,2,33.751401,44.589845000000004
Kirovske,2,48.150642,38.362656
Ban Nang Niang,2,8.655166,98.25125200000001
Novooleksiyivka,2,46.227616999999995,34.641869
Faiyum district,2,29.31053,30.842290000000002
Burambi,2,-3.8007489999999997,29.440427000000003
Ras al-Ain,2,36.847954,40.070617999999996
Al-Hawtah,2,14.4277,46.15147
Masbate,2,12.369767,123.626846
Katsina Ala,2,7.169789999999999,9.284013
Dambuk Aga,2,25.213044,90.762847
Uch,2,28.629159,68.616381
Pasuquin,2,18.332644000000002,120.61730800000001
Kiloora,2,33.736084999999996,74.87266899999999
Har Adar,2,31.824501,35.12966
Bururi,2,-3.9462099999999998,29.619699
Akraba,2,32.125412,35.346478000000005
Poonch,2,33.767001,74.092404
Tshimbulu,2,-6.4786660000000005,22.861196
Howrah,2,22.632176,88.35556
Bochaganj,2,25.799722,88.462189
Gangaloor,2,18.736424,81.03958100000001
Gombi,2,9.443430000000001,12.573835
Baydhabo,2,3.115641,43.64658
Indianapolis,2,39.825657,-86.227067
Charlotte,2,35.213923,-80.790063
Nahal Sion,2,33.276976,35.686985
Talalak,2,9.344678,122.92424299999999
Kostiantynivka,2,48.526871,37.711357
Larnoo,2,33.622858,75.37182299999999
Burdhubo,2,3.1623069999999998,42.493771
Tuba,2,12.108889,13.117778
Bamba,2,17.033754000000002,-1.4040190000000001
Bulofay,2,2.110296,43.523323
Ajaccio,2,41.930607,8.742907
Kigi district,2,39.310059,40.349047999999996
Balghali,2,36.120026,66.055367
Langait,2,34.376325,74.30742099999999
Sofronio Espanola,2,9.051549000000001,118.049001
Rakshan Nadi,2,26.733346,64.140501
Har Bracha,2,32.193264,35.264885
Deribat district,2,13.066667,24.533333
Perth,2,-32.053696,115.96073100000001
Magumeri,2,12.114857,12.826347
Moqokori,2,4.061697000000001,46.134361
Puli Khumri district,2,35.938531,68.71709
Tahakwada,2,19.175051,81.246376
Tagugpo,2,7.036882,126.099999
Hsenwi,2,23.300698,97.962521
Antananarivo,2,-18.914149,47.531678
Dhahran,2,26.284889,50.144042999999996
Qurayyah,2,26.200018,50.463268
Taunsa,2,30.705992,70.64844699999999
Tarkho,2,34.864895000000004,71.39972399999999
Abidjan,2,5.3597150000000005,-3.9673879999999997
Toumour,2,13.667778,13.1275
Kaluwo Nuea,2,6.407824,101.855243
Daglica district,2,37.374774,44.085309
Brega,2,32.069286,20.151144
Nagaa Hamady,2,26.047953,32.240407
Tubungan,2,10.783333,122.3
Fortul,2,6.792497999999999,-71.775599
La Playa de Belen district,2,8.212994,-73.238383
Than To,2,6.165661,101.18354000000001
El Loro,2,8.595295,-73.367613
Sarai Darpa Khel,2,32.993288,70.053627
Tabit,2,13.314836999999999,25.088934
Mirogul Kalay,2,31.393889,65.836667
Los Arcos,2,8.591197,125.886192
Ziltan,2,32.468399,14.567225
Colonia,2,6.643853,122.156371
Walama,2,10.286878999999999,11.962558
Ashaka,2,10.885779,11.516403
Dogri Pora,2,33.851843,75.043033
Chervona Zorya,2,47.877395,38.902696
Bakhdida,2,36.269463,43.374396999999995
Ipil,2,7.784172,122.58328200000001
Peshawar district,2,34.014975,71.58049
Nabi Saleh,2,32.016219,35.12453
Mirtur,2,18.881486,81.152792
As Suwayrah district,2,32.925666,44.775526
Napo,2,12.53232,125.12051799999999
Imamaling,2,7.106528999999999,125.119808
Salameh,2,36.618584000000006,37.076237
Ahmad Shah Khel,2,31.979166999999997,67.05111099999999
Avdiyivka,2,48.143208,37.753361
Krasnodon,2,48.316971,39.715263
Kimlawis,2,6.615473,125.217184
Jamal Agha,2,35.066532,69.292381
New City,2,41.154049,-73.99092900000001
Comilla district,2,23.455809,91.197901
Senator Ninoy Aquino,2,6.4657279999999995,124.33594699999999
West Khasi Hills district,2,25.566036999999998,91.290612
Jaffna,2,9.666399,80.020477
Ottawa,2,45.423571,-75.700909
Saba Yoi district,2,6.503826999999999,100.845147
Aipi Kor,2,34.581144,71.43719200000001
Ladysmith,2,-28.560404,29.782343
Cadaado,2,6.134133,46.631699
Ngakobo,2,6.316822,20.712246
Pir Koti,2,32.912468,69.26080300000001
Tisia,2,23.584152,84.05354799999999
Wasta,2,29.334103999999996,31.204953999999997
Ayvalik,2,37.482628000000005,43.116848
Pantha Chowk,2,34.040310999999996,74.88799200000001
Dungiven,2,54.929411,-6.917567
Marko,2,34.252303999999995,70.80242199999999
Vellamunda,2,11.733953,75.937593
Hailakandi district,2,24.681102,92.563805
Abud,2,32.016539,35.068807
Dema,2,23.996528,84.37785699999999
Binucayan,2,8.050528,125.872222
Puri,2,19.809669,85.830978
El Carmen district,2,8.512242,-73.447275
Mahayahay,2,13.9213,120.878729
Edealina,2,-17.424789,-49.662512
Nyalla North district,2,12.963262,24.506722
Zammar,2,36.660896,42.605278000000006
Sarobi district,2,32.771313,69.07318000000001
Tello district,2,3.067228,-75.13516899999999
Alobo,2,13.111536,123.676382
Inza,2,2.55,-76.06666700000001
Kandahar district,2,31.603178000000003,65.635764
Markanar,2,19.928416,80.476676
Deh Gul,2,34.338021999999995,63.367503
Ratapanyang,2,6.820932000000001,101.352468
Cabadbaran,2,9.12154,125.538397
Burniga,2,-3.383549,29.366583000000002
Datu Paglas,2,6.7669440000000005,124.85
Midsayap district,2,7.189181,124.53249699999999
Pitalito,2,1.8526209999999999,-76.04607299999999
Sayid Gharib,2,33.909797999999995,44.163391
Aq Tapa,2,36.968243,68.56884000000001
Gaambe-Tiev,2,7.719042999999999,9.238703999999998
Tijam,2,35.865322,64.51825699999999
Marawara,2,34.888943,71.17688000000001
Orikhove,2,48.721722,38.564716
Stepanivka,2,47.924826,38.802038
Jamui,2,25.015929999999997,86.292694
Khadizai,2,33.640689,70.775759
Rajouri district,2,33.371522999999996,74.315172
Taipei,2,25.046689,121.539533
Douna,2,15.110582999999998,-1.7344990000000002
Balleymoney,2,55.071135999999996,-6.513154
Chaparral district,2,3.7503629999999997,-75.585482
Kamyanske,2,48.523449,34.613357
Kuldan,2,25.334595,61.771954
Sonua,2,22.570860999999997,85.46091700000001
El Diamante,2,7.133955,-74.648538
Berre L'Etang,2,43.475773,5.1673089999999995
Mayfaa,2,14.263454000000001,47.575022
Shali,2,43.143468,45.904291
Gan Yavne,2,31.788639,34.706757
Nagpapacao,2,12.148000999999999,124.880109
Batman,2,37.889517,41.129283
Nahalin,2,31.685863,35.121067
Muang Pattani,2,6.8739539999999995,101.234711
Buguma,2,4.7402940000000005,6.861905
Boikene,2,0.5413859999999999,29.490111
Esendere,2,37.717732,44.603199
Florencia,2,1.615386,-75.604236
Trikh Nawar,2,31.529604,64.232224
Sheikh Muhammadi,2,33.931446,71.519249
Padiyalmetta,2,19.496653,80.276765
Limankara,2,10.970246000000001,13.666146
Paraiso,2,6.829826,124.87684499999999
Balli Doogle,2,2.357026,44.718339
Talodi,2,10.636974,30.380187
Mamandari,2,34.08218,70.667035
Chamalang,2,30.074714,69.355563
Padaeru,2,6.403581,101.147301
White Kulaman,2,7.633114,125.017002
Kharbat Aziz,2,35.279077,44.000564000000004
Che He,2,6.253722,102.061687
Kurunegala,2,7.483368,80.367085
Pur Chaman district,2,33.160546999999994,63.78344499999999
Lincoln,2,40.846274,-96.700467
Dindigul,2,10.377212,77.973151
Limbocandis,2,6.441898,121.963071
Johan,2,29.333328,66.966011
Kator,2,15.766197,24.904221
Medan,2,3.595196,98.672223
Kuakonda,2,18.727104,81.44078499999999
Kote Sangi,2,33.297391,68.495416
Yayladagi,2,35.904236,36.063469
Tacloban,2,11.18954,125.01398700000001
Birgunj,2,27.000521999999997,84.86648100000001
Douentza district,2,15.14771,-2.315126
Eika,2,7.586111,6.266667
Metalist,2,47.824451,38.293659000000005
Kalahandi district,2,19.913736,83.1649
Dipolog,2,8.573098,123.34560400000001
Waghaz district,2,33.408889,68.21194399999999
Badiabad,2,34.741764,70.286812
Joypurhat,2,25.101193,89.029912
Zangitan,2,32.120754,65.919966
Budlingin,2,9.469021000000001,125.597222
Nawa,2,32.018291999999995,65.916676
Fresno,2,36.795142,-119.79103400000001
Sachar,2,32.952896,65.535995
Qambar,2,34.76548,72.328087
Bontoc,2,17.087511,120.97546200000001
Landai Nur,2,32.475559000000004,69.63606300000001
Tall Kusaybah,2,34.533753000000004,43.483738
Muzaffarpur district,2,26.120888,85.36471999999999
Tamenglong,2,24.984494,93.50352099999999
Natore,2,24.410961999999998,88.966346
Saslaj,2,36.620209,42.791828
Hawsh al-Farah,2,33.566097,36.485138
Al-Shamli,2,28.104333,43.015529
El Fashir district,2,13.62698,25.349581
Sukhnah,2,34.884201000000004,38.872516999999995
Jaramana,2,33.488997999999995,36.346882
Shariff Saydona Mustapha,2,6.942258,124.419824
Mushahadah,2,33.589786,44.266976
Gahit,2,12.040278,123.983056
Cuttack,2,20.464584,85.85831
Armagh,2,54.348038,-6.656917999999999
Kwajaffa,2,10.485016,12.429132000000001
Coachella,2,33.693175,-116.18749
Pusht Rod,2,32.480835,62.033931
As Sawaid,2,33.856667,44.654444
Kalimpong district,2,27.071369,88.475206
Kakpora,2,33.946835,74.92964599999999
Kambiron,2,24.729574,93.37393399999999
Ovacik district,2,39.349569,39.209312
Dhekiajuli,2,26.7,92.5
Nongoma,2,-27.894289,31.645303000000002
Oton,2,10.723932000000001,122.456193
Pervomaisk,2,48.092945,37.609921
Dungu district,2,3.616733,28.566558
Bungabong,2,7.2887710000000006,124.26983200000001
Matanao,2,6.7480649999999995,125.26274099999999
El Para,2,1.80292,-75.43966400000001
Moli,2,4.0297220000000005,31.954444
Koutougou,2,14.666613,-1.010994
Krong Pinang district,2,6.3908,101.229475
Kabal,2,34.792159999999996,72.284279
Bessieres,2,43.799853999999996,1.606223
El-Dabaa,2,31.027081,28.43569
Shash Khel,2,34.251594,70.715476
Jones district,2,16.581926,121.787521
Bourj Brajneh,2,33.843471,35.498738
Mimika district,2,-4.457827,137.122554
Tamiyyah,2,29.474121000000004,30.959152000000003
Kach Dorah,2,33.680737,74.881744
Paoua,2,7.249707000000001,16.433851
Darwan,2,14.221948999999999,44.39045
Hotan,2,37.114157,79.922211
Tanyongmat,2,6.296545,101.726551
Lamu district,2,-1.7532400000000001,40.941825
Kutumba,2,24.614972,84.229462
Tarkundi,2,33.4124,74.207707
Arish district,2,31.145676,33.880152
Kadarik,2,15.766197,24.904221
Mashahidah,2,34.266661,42.528929
Safid Khar,2,32.629303,65.817268
Dujail district,2,33.837445,44.250608
Qabr al-Abd,2,36.181419,43.233799
Harrisburg,2,40.262772,-76.881107
Ahmed Wal,2,29.390916999999998,65.93576800000001
Izghe,2,12.120519999999999,13.174035
Dikwa district,2,12.044628,13.920746
Kaldar district,2,37.184742,67.70913900000001
Bielel,2,11.630716,24.893303
Bir Lahfan,2,31.006922999999997,33.871746
Qardaha,2,35.457378999999996,36.059439000000005
Shalghamay,2,31.516389,65.171667
Topi,2,34.070091,72.62262
Eli,2,32.069646999999996,35.247516999999995
Boya,2,32.955745,69.92325100000001
Talayan,2,6.979245,124.38294099999999
Tangerang,2,-6.202456,106.652695
Jadigittim,2,25.194184,90.633597
Sheikhupura district,2,31.716662,73.985024
Hemayetpur,2,23.792764000000002,90.27608599999999
Sher Ali Shaheed,2,28.293237,65.31019
Chhipadohar,2,23.815092,84.199699
Taba,2,29.492057,34.895225
Emohua district,2,4.883811,6.866875
Tikanpal,2,18.637732999999997,81.345399
Alkaleri,2,10.271303999999999,10.330143
Bulan district,2,12.664750999999999,123.887642
Asriyah,2,32.885,44.389167
Central,2,27.870047999999997,84.840112
Myo Thu Gyi,2,20.824339000000002,92.367388
Bani Naim,2,31.518476,35.162791999999996
Daba,2,2.6090139999999997,40.849056
Shahu Khel,2,33.58896,71.121706
Gresha,2,27.649826,65.980194
Kannur,2,11.874478,75.370366
Dewana Khana,2,35.834333,64.525269
Mianzer,2,34.416667,71.541111
Qari Sadi,2,31.558117,64.11721800000001
Panipat,2,29.391889000000003,76.964477
Mansoura,2,31.038039,31.382121
Ban Pulamong,2,6.545583000000001,101.52583299999999
Mount Sabr district,2,13.548423999999999,44.052176
Al-Hatik,2,15.458332999999998,45.386389
Lakshmipur,2,22.94456,90.837466
Ystad,2,55.431188,13.824416000000001
Witu district,2,-2.388649,40.438047999999995
Djibo,2,14.093442000000001,-1.6340780000000001
Batangoo,2,33.756935999999996,75.118788
Halhul,2,31.578413,35.102066
Rovereto,2,45.89096,11.04014
Santa Barbara,2,16.327503,120.36436499999999
Limassol,2,34.69512,32.999826
Deh Naw,2,37.028451000000004,66.747647
Ruangthip,2,6.288447,101.99310899999999
Bang Sai,2,13.274189999999999,100.96136800000001
Datu Piang district,2,6.942258,124.419824
Surab,2,28.491249,66.263474
Lianga,2,8.633417999999999,126.094467
Sajariyah,2,33.431496,43.384418
Ladia,2,7.262213,124.308826
Litan,2,24.941558999999998,94.213225
Bornova,2,38.462655,27.244096000000003
Puerto Asis,2,0.516667,-76.5
Ndava district,2,-3.3819230000000005,29.753358000000002
Dinajpur district,2,25.751844000000002,88.71089599999999
Babayurt district,2,43.599162,46.776423
Sitakunda,2,22.617334,91.662083
Ndele,2,8.411627000000001,20.648757
Tani district,2,33.241541999999995,69.82847
Hilal Khial Charmang,2,34.739565999999996,71.530142
Pio Duran,2,13.036508,123.450033
Mallan,2,11.899207,13.291979999999999
Kashmore district,2,28.267440999999998,69.37741899999999
Tall Dhahab,2,34.04347,44.224306
Saptari,2,26.617262,86.701389
Khalil Bagh,2,32.172841,65.47418499999999
Houston,2,29.813822,-95.36529499999999
Iligan,2,8.22777,124.24468200000001
Phraiwan,2,6.28999,101.957871
Tepi,2,7.201288000000001,35.420773
Grimari,2,5.742724,20.053681
Malegbassa,2,4.644361,20.814878
Buxar,2,25.56471,83.97774799999999
Maraigude,2,18.386905,81.65647
Salar,2,33.90493,68.672478
Merangerang,2,7.763808999999999,125.120193
Tehran,2,35.724533,51.405190000000005
Munchingput,2,18.141779,82.686789
Santa Cruz,2,17.021916,120.457568
Baishari,2,21.513929,92.176654
Tha Ruae,2,6.783047,101.059862
Villarica,2,7.165741000000001,124.517508
Rajnandgaon,2,21.097542,81.03778100000001
Chintur,2,17.742874,81.396271
Kahmard district,2,35.319246,67.63368299999999
Kandi Bagh,2,34.287481,70.3881
Malkangiri,2,18.343586,81.88252800000001
El Retorno district,2,1.8615869999999999,-71.961986
Ughelli North district,2,5.523611,5.990278
Orange,2,-33.283013000000004,149.100151
Tuka,2,6.541362,124.588394
Ceel Cali,2,4.193211,44.994213
Al-Mansuriyah,2,34.0364,45.012778999999995
Utmela,2,33.718056,70.821924
Frunze,2,48.674155999999996,38.752251
Quaidabad,2,24.891115,67.143311
Khanukah,2,35.577645000000004,43.256273
Ikyoawen,2,6.8914789999999995,9.232445
Cabanatuan,2,15.476182999999999,120.96068600000001
Tengnoupal district,2,24.383792,94.148177
Badiliguda,2,20.200051000000002,83.916612
Bagara,2,13.367292,12.445886
Clarin,2,8.205395,123.802652
Koil,2,33.87962,74.94856999999999
Aleosan district,2,7.188938,124.63033700000001
Turin,2,45.072731,7.679541
Hameyi,2,-0.061944000000000006,39.010556
Hajjan,2,34.407706,74.39501899999999
Jangla,2,18.985771,80.987298
Muhallabiyah,2,36.265347999999996,42.703945000000004
Propriano,2,41.673761,8.901617
Bak district,2,33.513742,70.12265500000001
Bara district,2,33.922053999999996,71.462588
Elon Moreh,2,32.234013,35.333915999999995
Pitu Mudi,2,6.7366600000000005,101.285938
Kilu Miat wa Sittin,2,33.201392999999996,41.698021000000004
Wumyeduga,2,11.156084,12.756611
Ban Taba,2,6.237554,102.082001
Nirkh district,2,34.35,68.716667
Akoko-Edo district,2,7.420306,6.171943
Achini,2,33.965565000000005,71.469551
Harnosand,2,62.63227,17.940870999999998
Sumy,2,50.9077,34.7981
Kimba,2,11.509748,12.978912
Ywathitkay,2,20.822439000000003,92.366786
Zliten,2,32.468399,14.567225
Milimani,2,-1.7666669999999998,40.833333
Abbottabad,2,34.173321,73.227867
Kushk district,2,34.781667,62.122778000000004
Bagrami district,2,34.493697,69.269869
Opira,2,0.816804,29.60425
Dawawa,2,32.137698,64.98576
Paluka Samo,2,6.610469999999999,101.629622
Harding,2,-30.576877000000003,29.893953999999997
Ghotki district,2,27.792663,69.76443499999999
Nhachato,2,-19.870278,33.741667
Sarab,2,32.88216,66.127197
Bani Jamra,2,26.210376999999998,50.46233
Baidoa district,2,3.1166669999999996,43.65
Dand Shahabuddin,2,35.812976,69.287662
Pirandar,2,26.482415999999997,65.282104
Leer district,2,8.349357000000001,30.139267999999998
Gatan,2,18.813226999999998,81.579399
Pendodi,2,20.168352,80.509791
Okpanam,2,6.232564,6.648192999999999
Luhanske,2,48.434872,38.2705
Puli Moemin,2,36.952174,69.1662
Kachi district,2,29.261365,67.657531
Mopeia,2,-18.034229999999997,35.872251
Al-Muwaqqa,2,31.914264000000003,35.934998
Seattle,2,47.610786,-122.33130600000001
Nawada,2,24.886739000000002,85.542532
Abu Tabah,2,33.930061,44.800024
Cawayan district,2,12.055794,123.72941999999999
Stalskoye,2,43.186149,46.973752000000005
Kondapara,2,18.483756,81.290425
Chashmah,2,31.529885999999998,65.027962
Matampay,2,8.011382000000001,124.28528899999999
Painda Cheena,2,33.9325,70.92666700000001
Dowaya,2,9.452652,12.062408
Wanpoh,2,33.729618,75.108563
Bahrami Shahid district,2,33.526666999999996,68.119722
San Andres de Cuerquia district,2,6.906658999999999,-75.68692800000001
Tulkarm,2,32.311927000000004,35.026584
Burgos,2,16.063522,121.14788600000001
Al-Numaniyah district,2,32.419325,45.651986
Kachua,2,23.342512,90.897733
Naguman,2,34.124221999999996,71.608743
Vyselky,2,47.70066,38.659327000000005
Mura,2,20.317241,81.269729
Matamoros,2,25.852107,-97.50563199999999
Salim Khan,2,34.165833,72.461111
Habib,2,33.326099,68.41664899999999
Khannesin,2,30.550197999999998,63.78606
Weala,2,34.248831,70.907566
Al-Murrah,2,35.358934999999995,44.145917
Snizhne,2,48.021678,38.762459
Gerille,2,3.285547,39.571744
Al-Rai,2,36.612792999999996,37.449032
Duwakot,2,27.692982,85.41149899999999
Mius,2,48.285278000000005,38.546110999999996
Afula,2,32.608878999999995,35.289967
Aligarh,2,27.900297,78.08026
Lilingayon,2,7.9912160000000005,124.969311
Algeciras district,2,2.5241290000000003,-75.316164
Bakriyah,2,33.27411,43.969736
Lamfugon,2,6.213233,124.69790900000001
Jafarabad,2,28.009182,67.84906
Awbari,2,26.561832,12.880869
Kiryat Malachi,2,31.732119,34.745651
Tiaret,2,35.367354999999996,1.3220319999999999
Boor Ya Baff,2,34.25696,62.857845
Jubah,2,33.907707,42.542435
Kurakhove,2,47.989849,37.263969
Vesela Hora,2,48.711331,39.250253
Siverek,2,37.739927,39.31389
Senkaya district,2,40.663175,42.380213
Damistan,2,26.123784,50.469588
Shahre Kohna,2,32.441399,62.063667
Kobashi,2,34.19899,45.193089
Silwad,2,31.9793,35.261948
Okehi district,2,7.716438,6.343879
Bagmara,2,24.590334,88.828436
Ashulia,2,23.899664,90.322927
Bukhtiarabad,2,28.989146999999996,68.011421
Khannesin district,2,30.550638,63.78141
Aman Tabar,2,34.211811,71.50689100000001
Tangai,2,34.769814000000004,71.37168100000001
Newry,2,54.183052,-6.341387999999999
Birin Fulani,2,10.913944,11.271925999999999
Katibpuan,2,6.982138000000001,124.36828200000001
Sinsil,2,34.021822,44.933508
Monrovia,2,6.313016,-10.801496
Al-Kawthar,2,33.760481,44.736636
Bambara Maounde,2,15.852703,-2.786315
Machkund,2,18.547195000000002,82.476928
Magwi district,2,3.8969709999999997,31.928110999999998
Kulbiyow,2,0.029851999999999997,41.882226
Ganse,2,11.155046,14.072689000000002
Kuybyshevo,2,47.818333,38.908333
Watban,2,34.176846999999995,43.69915
Idil district,2,37.372713,41.93286
Paroa,2,31.555899,70.762512
Hani district,2,38.472356,43.404121999999994
Santo Thomas,2,14.074254999999999,121.193351
Habban,2,14.354522,47.075779
Sultankhel,2,33.883476,68.632286
Chamchamal,2,35.532790999999996,44.827717
Katipunan,2,7.582091999999999,122.831373
Maymana district,2,35.921389000000005,64.783611
Tanao Pute,2,6.354507,101.299081
Sibe,2,14.119094,-1.515526
Palai,2,34.511179999999996,72.08252900000001
Kawfil,2,15.416982999999998,45.081879
Attard,2,35.890332,14.430632999999998
As Sakran,2,34.192039,42.497271999999995
Mathili,2,18.543809,82.22333
Palamu,2,24.128611,84.185711
Ormoc,2,11.016886999999999,124.600609
Gadanha,2,35.925422,68.631794
Malgobek,2,43.505392,44.5835
Ngadi,2,0.540035,29.491763
Dawlat Yar district,2,34.557369,65.766258
Gazipur,2,24.091306,90.385274
Sabir,2,12.99372,44.919445
Yiblane,2,3.204336,45.347364
Muhammad Agha district,2,34.214774,69.098546
Ubari,2,26.561832,12.880869
Washington,2,12.462716,124.64334
Macka,2,40.814141,39.609069
Philadelphia,2,40.008171000000004,-75.13549
Matta,2,34.931168,72.41694100000001
Nembe district,2,4.532813,6.403743
Bandooka,2,33.8148,68.94941899999999
Satan,2,6.889578,124.432344
Bub Ash Sham,2,33.470512,44.393494
Dangerpora,2,34.330560999999996,74.46534
Ghorak district,2,32.031878000000006,65.13488000000001
Nili,2,31.963415,35.047270000000005
Saar,2,26.191792,50.484642
Khalid Brohi,2,28.242526,69.183451
Buddhabhumi,2,27.653347999999998,82.993155
Dawlatabad,2,36.99033,66.820961
Pishukan,2,25.123611,62.066667
Mathra,2,34.102074,71.47802
Sundraul,2,35.132438,71.826139
Izyum,2,49.212778,37.256944
Khanozai,2,30.622065999999997,67.351288
Pandyali,2,34.599701,71.334191
Chukitong,2,26.10783,94.295332
Arwani,2,33.785717,75.066156
Albu Isa,2,33.821707,44.412618
Bohe,2,6.482175,122.16528600000001
Wadi Iqab,2,36.332734,43.082809000000005
Langar,2,35.919426,66.459389
Toru,2,34.14257,72.09343
Al-Shadadi,2,36.054961999999996,40.724959999999996
Jibwhiwhui,2,10.611260000000001,12.492807
Balcad,2,2.359127,45.383671
Choto,2,30.164757,66.469774
Misseni,2,10.31921,-6.076768
Santa Rosa del Aguaray district,2,-23.80023,-56.502704
Eringeti,2,0.853174,29.610718
Teesta,2,26.577240000000003,89.031839
Sholgara district,2,35.966667,66.7025
Khammam district,2,17.247051000000003,80.151222
Bhind,2,26.564511,78.78825400000001
Ajdari,2,34.595275,71.461117
Yaghi Band,2,34.175971000000004,70.466601
Siinka Dheer,2,2.0721119999999997,45.221424
La Brasilia,2,6.986211999999999,-71.49752099999999
Mahr,2,34.710743,37.764854
Koto Tuera,2,6.491712000000001,101.392511
Bismayah,2,33.203358,44.586689
Kansaram,2,18.002616,80.997272
Dereli,2,40.741706,38.451811
Qasre Qand,2,26.223519,60.750488
Manglawar,2,34.805673,72.439545
Numbi,2,-1.787457,28.893903
Magherafelt,2,54.755402000000004,-6.6060289999999995
Lukove,2,47.351321,37.931012
Sagada,2,17.158856,120.89018200000001
Camcaman,2,12.588992999999999,124.069382
Abu Jair,2,33.260222999999996,42.894081
Siocon,2,7.70325,122.132102
Haraza,2,11.3,24.183332999999998
Patungcaleo,2,17.127442000000002,120.700453
Badghisi,2,35.915723,64.492786
Valuyske,2,48.663235,39.530848999999996
Bagahanglad,2,12.540585,123.638902
Jhal Magsi,2,28.373562,67.565649
Chervonopartyzansk,2,48.066917,39.797619
Malaybalay,2,8.130925999999999,125.12709
Calapagan,2,6.896380000000001,126.010585
Bacheli,2,18.701641,81.248451
Tegha,2,33.418412,70.468875
Dindigul district,2,10.329866,77.90879699999999
San Roque,2,13.712620000000001,123.21248500000002
Ikorodu,2,6.619413000000001,3.510454
Ohaukwu district,2,6.535695,8.023253
Nyzhnoderevechka,2,48.217554,39.775964
Washuk,2,27.724359999999997,64.80908199999999
Limbe,2,4.023733999999999,9.195135
Daudzai,2,34.084457,71.550957
Wanlaweyne,2,2.619745,44.893681
Kibirizi,2,-0.791773,29.045993
Haswa,2,33.264934000000004,44.072294
Ansongo district,2,15.769754999999998,1.1501370000000002
Makilala,2,6.95,125.05
Raghzai,2,32.822868,70.113206
Lakki Marwat,2,32.606209,70.90862299999999
Shibar district,2,34.936939,68.098635
Spinwam,2,33.173840999999996,70.401759
Amvrosiivksy district,2,47.780476,38.488824
Cabiao,2,15.249382,120.8499
Rakhni,2,30.043166999999997,69.924109
Nanga Boguila,2,7.136028,16.9109
Kajatian,2,6.04343,120.99426299999999
Las Mercedes,2,8.300591,-72.88925400000001
Owerri,2,5.485,7.035
Bima,2,-8.454439,118.72464199999999
Rajgal,2,33.903473999999996,70.645647
Lugari,2,0.651158,34.876211
Palukasamoh,2,6.610726,101.630217
Rajm al-Salibi,2,36.807907,42.071414000000004
Awka,2,6.217015,7.087067
Toba Nohkani,2,28.919873,69.170866
Ludwigshafen,2,49.477083,8.445291000000001
Ngalda,2,11.106442999999999,11.374312
Barakhanah,2,34.552731,64.962845
Koothuparamba,2,11.831884,75.565515
Pantar,2,7.872180999999999,123.885775
Iraya,2,12.903506,123.245997
Kasab,2,35.92522,35.988251
La Esperanza,2,6.33336,-71.48331999999999
Slovyanoserbsk,2,48.69664,38.983349
